~VERSION
 VERS.        2.0                                          :CWLS LOG ASCII STANDARD - VERSION 2.0
 WRAP.        NO                                           :ONE LINE PER DEPTH STEP
~WELL
#       MNEM.UNIT                DATA                    DESCRIPTION OF MNEMONIC
#----------------------    ----------------              -----------------------
 STRT.M       3210.00000                                                                                     :START DEPTH
 STOP.M       3934.66200                                                                                     :STOP DEPTH
 STEP.M       0.15240                                                                                        :STEP DEPTH
 NULL.        -999.25000                                                                                     :NULL VALUE
 COMP.        PanCanadian Petroleum Limited                                                                  :COMPANY NAME
 WELL.        Panuke M-79A                                                                                   :WELL NAME
  FLD.        Panuke                                                                                         :FIELD NAME
  LOC.        Panuke                                                                                         :LOCATION / LEASE
 PROV.        Nova Scotia                                                                                    :PROVINCE
 CTRY.        CANADA                                                                                         :COUNTRY
 SRVC.        SPERRY-SUN DRILLING SERVICES                                                                   :SERVICE COMPANY
 DATE.        29-Oct-2000                                                                                    :DATE
  UWI.        300M794350060301                                                                               :UNIQUE WELL ID
 LATI.DEG     43 48' 32.10" N                                                                                :LATITUDE
 LONG.DEG     60 41' 59.81" W                                                                                :LONGITUDE
~CURVE
#MNEM.UNIT    VALUE                                        :DESCRIPTION
#----.----    ---------------                              :-------------------
 DEPT.M       00 001 00 00                                 :Depth Index
  TVD.M                                                    :TVD C=LAST G=1M
 SROP.M/HR                                                 :RATE OF PENETRATION C=SMOOTHED@0.5M G=1M
 SGRC.API                                                  :GAMMA RAY C=SMOOTHED@0.5M G=1M
 SEDP.OHMM                                                 :DEEP EWR PHASE RES  C=MEAN G=1M
 SEMP.OHMM                                                 :MEDIUM EWR PHASE RES  C=MEAN G=1M
 SESP.OHMM                                                 :SHALLOW EWR PHASE RES  C=MEAN G=1M
 SEXP.OHMM                                                 :EXT SHALLOW EWR PHASE RES  C=MEAN G=1M
 TEMP.DEGC                                                 :TEMPERATURE C=LAST G=1M
 SFXE.HR                                                   :FORM EXPOS TIME C=SMOOTHED@0.15M G=1M
 ACCC.MM                                                   :CORR CALIPER C=SMOOTHED@0.15M G=1M
 DTCQ.US/M                                                 :COMPRESSIONAL SLOWNESS C=SMOOTHED@0.15M G=1M
 DTSQ.US/M                                                 :SHEAR SLOWNESS C=SMOOTHED@0.15M G=1M
 SPLF.PU                                                   :NEUTRON POROSITY C=SMOOTHED@.2M G=1M
 SBD2.KPM                                                  :BULK DENSITY C=SMOOTHED@.2M G=1M
 SCO2.KPM                                                  :STANDOFF CORRECTION C=SMOOTHED@.2M G=1M
 SNPE.B/E                                                  :PHOTO ELECTRIC C=SMOOTHED@.2M G=1M
~PARAMETER
#MNEM.UNIT    VALUE                                        :DESCRIPTION
#----.----    ---------------                              :-------------------
 PDAT.        MEAN SEA LEVEL                               :PERMANENT DATUM
  EPD.M       0.000000                                     :ELEVATION OF PERMANENT DATUM ABOVE MEAN SEA LEVEL
  LMF.        DRILL FLOOR                                  :LOGGING MEASURED FROM (NAME OF LOGGING ELEVATION REFERENCE)
  APD.M       47.020000                                    :ELEVATION OF DEPTH REFERENCE (LMF) ABOVE PERMANENT DATUM
~OTHER
#SPERRY-SUN DRILLING SERVICES WILL USE ITS BEST EFFORTS TO FURNISH CUSTOMERS
# WITH ACCURATE INFORMATION AND INTERPRETATIONS THAT ARE PART OF, AND INCIDENT
# TO, THE SERVICES PROVIDED.  HOWEVER, SPERRY-SUN DRILLING SERVICES CANNOT AND
# DOES NOT WARRANT THE ACCURACY OR CORRECTNESS OF SUCH INFORMATION AND
# INTERPRETATIONS.  UNDER NO CIRCUMSTANCES SHOULD ANY SUCH INFORMATION OR
# INTERPRETATION BE RELIED UPON AS THE SOLE BASIS FOR ANY DRILLING, COMPLETION,
# PRODUCTION, OR FINANCIAL DECISION OR ANY PROCEDURE INVOLVING ANY RISK TO THE
# SAFETY OF ANY DRILLING VENTURE, DRILLING RIG OR ITS CREW OR ANY THIRD PARTY.
# THE CUSTOMER HAS FULL RESPONSIBILITY FOR ALL DRILLING, COMPLETION, AND
# PRODUCTION OPERATION.  SPERRY-SUN DRILLING SERVICES MAKES NO REPRESENTATIONS
# OR WARRANTIES, EITHER EXPRESSED OR IMPLIED, INCLUDING, BUT NOT LIMITED TO,
# THE IMPLIED WARRANTIES OF MERCHANTABILITY OR FITNESS FOR A PARTICULAR PURPOSE,
# WITH RESPECT TO THE SERVICES RENDERED.  IN NO EVENT WILL SPERRY-SUN DRILLING
# SERVICES BE LIABLE FOR FAILURE TO OBTAIN ANY PARTICULAR RESULTS OR FOR ANY
# DAMAGES, INCLUDING, BUT NOT LIMITED TO, INDIRECT, SPECIAL OR CONSEQUENTIAL
# DAMAGES, RESULTING FROM THE USE OF ANY INFORMATION OR INTERPRETATION PROVIDED
# BY SPERRY-SUN DRILLING SERVICES.
~ASCII     DEPT            TVD           SROP           SGRC           SEDP           SEMP           SESP           SEXP           TEMP           SFXE           ACCC           DTCQ           DTSQ           SPLF           SBD2           SCO2           SNPE
# ...
     3590.39040     3461.82000        6.90000       12.47000      310.99000      233.43000      169.84000       74.70000       65.90000        4.39000      224.61000      184.00000      335.00000        2.53000     2672.00000       95.00000        3.69000
     3590.54280     3461.86000        5.20000       12.03000      352.27000      299.21000      224.94000       75.05000       65.90000        4.41000      221.54000      180.00000      335.00000        2.14000     2652.00000       79.00000        4.29000
     3590.69520     3461.88000        4.60000       11.93000      425.24000      342.49000      252.81000       82.50000       65.90000        4.41000      224.18000      168.00000      327.00000        1.93000     2660.00000       69.00000        4.48000
     3590.84760     3461.91000        3.90000       12.12000      237.58000      174.24000      110.66000       48.62000       65.90000        4.38000      219.49000      170.00000      338.00000        1.63000     2698.00000       60.00000        4.37000
     3591.00000     3461.93000        4.80000       12.30000      799.59000      575.66000      308.09000       77.01000       65.90000        4.30000      218.85000      170.00000      337.00000        1.70000     2686.00000       75.00000        4.23000
     3591.15240     3461.96000        5.30000       12.08000      621.07000      533.31000      390.85000      104.24000       65.90000        4.19000      223.41000      168.00000      334.00000        1.67000     2653.00000       91.00000        3.90000
     3591.30480     3461.98000        4.40000       12.58000      662.39000      525.31000      369.94000      104.00000       65.90000        4.18000      228.43000      168.00000      331.00000        1.66000     2670.00000       95.00000        3.72000
     3591.45720     3462.01000        2.40000       12.72000      458.16000      375.96000      297.43000      131.30000       65.90000        4.15000      230.94000      166.00000      331.00000        1.79000     2676.00000       85.00000        3.62000
     3591.60960     3462.03000        2.10000       12.74000      324.56000      248.75000      189.36000       94.56000       65.90000        4.16000      232.18000      166.00000      329.00000        2.36000     2677.00000       92.00000        3.87000
     3591.76200     3462.06000        2.80000       13.75000      238.46000      173.86000      115.67000       57.77000       65.90000        4.14000      230.62000      164.00000      319.00000        2.97000     2649.00000       43.00000        4.46000
     3591.91440     3462.08000        3.10000       14.47000      286.17000      214.88000      145.24000       64.50000       65.90000        4.13000      228.45000      165.00000      317.00000        3.19000     2656.00000       29.00000        4.52000
     3592.06680     3462.11000        3.30000       15.97000      405.40000      364.96000      358.05000      126.83000       65.90000        4.12000      224.05000      166.00000      318.00000        3.01000     2664.00000       38.00000        4.11000
     3592.21920     3462.13000        3.30000       16.57000      332.24000      322.29000      344.74000      127.10000       65.90000        4.12000      219.83000      164.00000      325.00000        3.43000     2665.00000       34.00000        4.02000
     3592.37160     3462.16000        2.80000       17.66000      324.12000      302.73000      412.29000      108.88000       65.90000        4.16000      225.88000      168.00000      320.00000        4.19000     2687.00000       24.00000        4.17000
     3592.52400     3462.19000        2.00000       17.76000      644.30000      992.71000     2000.00000      334.99000       65.90000        4.17000      232.91000      167.00000      319.00000        4.45000     2665.00000       24.00000        4.14000
     3592.67640     3462.21000        1.80000       17.61000      425.55000      488.66000      773.95000      139.95000       65.90000        4.19000      230.42000      166.00000      319.00000        4.16000     2653.00000       17.00000        3.99000
     3592.82880     3462.24000        1.80000       18.10000      293.96000      263.17000      203.97000      101.56000       65.90000        4.15000      227.38000      165.00000      319.00000        3.66000     2661.00000       27.00000        4.63000
     3592.98120     3462.26000        2.10000       18.24000      242.02000      205.94000      155.91000       91.82000       65.90000        4.13000      227.02000      165.00000      326.00000        3.57000     2714.00000       51.00000        4.73000
     3593.13360     3462.29000        2.60000       18.55000      243.74000      196.64000      187.06000      100.47000       65.90000        4.18000      232.89000      165.00000      328.00000        3.44000     2686.00000       26.00000        4.46000
     3593.28600     3462.30000        2.40000       19.31000      245.67000      208.65000      225.98000      101.24000       65.90000        4.20000      235.05000      166.00000      330.00000        3.38000     2685.00000       30.00000        4.44000
     3593.43840     3462.34000        2.00000       20.33000      190.44000      173.28000      184.76000       82.78000       65.90000        4.23000      230.05000      165.00000      332.00000        3.41000     2695.00000       24.00000        4.68000
     3593.59080     3462.35000        2.00000       20.63000      163.36000      138.41000      132.79000       68.78000       66.50000        4.24000      230.02000      167.00000      333.00000        3.55000     2706.00000       24.00000        4.76000
     3593.74320     3462.38000        2.50000       19.91000      177.47000      144.61000      147.72000       80.27000       66.50000        4.31000      233.49000      168.00000      331.00000        4.16000     2670.00000        3.00000        4.43000
     3593.89560     3462.40000        2.70000       19.72000      128.03000       97.27000       82.70000       50.94000       66.50000        4.32000      232.38000      168.00000      332.00000        4.41000     2713.00000       22.00000        4.47000
     3594.04800     3462.43000        3.40000       20.43000      117.44000       90.04000       71.07000       46.17000       66.50000        4.29000      258.40000      165.00000      331.00000        4.26000     2741.00000       37.00000        4.46000
     3594.20040     3462.45000        4.00000       20.31000      119.89000       95.66000       86.71000       38.66000       66.50000        4.28000      259.95000      165.00000      332.00000        4.02000     2722.00000       35.00000        4.45000
     3594.35280     3462.48000        4.90000       20.60000      154.43000      114.99000      168.87000       61.62000       66.50000        4.29000      252.02000      167.00000      332.00000        3.86000     2703.00000       30.00000        4.21000
     3594.50520     3462.50000        4.60000       20.58000      135.90000      110.65000      119.91000       59.18000       66.50000        4.30000      250.17000      168.00000      335.00000        3.68000     2680.00000       20.00000        4.49000
     3594.65760     3462.53000        3.50000       19.76000       98.91000       81.64000       70.26000       43.77000       66.50000        4.29000      230.32000      171.00000      332.00000        3.99000     2682.00000       23.00000        4.62000
     3594.81000     3462.54000        3.40000       19.62000       87.45000       72.83000       63.98000       40.76000       66.50000        4.28000      232.03000      173.00000      331.00000        4.21000     2699.00000       30.00000        4.58000
     3594.96240     3462.57000        2.50000       19.20000       84.51000       71.80000       62.76000       38.01000       66.50000        4.27000      238.02000      167.00000      333.00000        4.29000     2686.00000       24.00000        4.48000
     3595.11480     3462.59000        2.40000       19.79000       86.21000       71.76000       61.67000       36.65000       67.10000        4.25000      239.68000      165.00000      334.00000        4.44000     2674.00000       19.00000        4.41000
