~VERSION
 VERS.        2.0                                          :CWLS Log ASCII Standard - VERSION 2.0
 WRAP.        NO                                           :One Line per depth step
 CREA.        20001106 21.27                               :LAS Creation date <yyyymmdd hh.mm>
#--------------------------------------------------
~WELL
#MNEM.UNIT      DATA             DESCRIPTION
#---- ------ --------------   -----------------------------
 STRT.M       3055.46760                                                                                     :START DEPTH
 STOP.M       3510.83880                                                                                     :STOP DEPTH
 STEP.M       0.15240                                                                                        :STEP
 NULL.        -999.25000                                                                                     :NULL VALUE
 COMP.        PANCANADIAN PETROLEUM LTD.                                                                     :COMPANY
 WELL.        PANCANADIAN PANUKE M-79                                                                        :WELL
  FLD.        PANUKE                                                                                         :FIELD
  LOC.        LAT 43 48' 32.10" N (NAD 27)                                                                   :LOCATION
 PROV.        NOVA SCOTIA                                                                                    :PROVINCE
 CTRY.        CANADA                                                                                         :COUNTRY
 SRVC.        Schlumberger                                                                                   :SERVICE COMPANY
 DATE.        06-Nov-2000                                                                                    :LOG DATE
  UWI.        300M794350060301                                                                               :UNIQUE WELL ID
 LATI.DEG     43 48' 32.10" N                                                                                :LATITUDE
 LONG.DEG     60 41' 59.81" W                                                                                :LONGITUDE
#--------------------------------------------------
~CURVE
#MNEM.UNIT    VALUE                                        :DESCRIPTION
#----.----    ---------------                              :-------------------
 DEPT.M       00 001 00 00                                 :Depth Index
   CS.F/HR                                                 :CABLE SPEED
 TENS.LBF                                                  :CABLE TENSION
 HTHO.PPM                                                  :HNGS FORMATION THORIUM CONCENTRATION
 HURA.PPM                                                  :HNGS FORMATION URANIUM CONCENTRATION
  HFK.                                                     :HNGS FORMATION POTASSIUM CONCENTRATION
 HSGR.GAPI                                                 :HNGS STANDARD GAMMA RAY
 HCGR.GAPI                                                 :HNGS COMPUTED GAMMA RAY
 HTPR.                                                     :HNGS THORIUM/POTASSIUM RATIO
 HTUR.                                                     :HNGS THORIUM/URANIUM RATIO
 HUPR.                                                     :HNGS URANIUM/POTASSIUM RATIO
 S2TM.DEGC                                                 :HNGS DETECTOR 2 TEMPERATURE
   DF.LBF                                                  :UNCALIBRATED DOWNHOLE FORCE
~PARAMETER
#MNEM.UNIT    VALUE                                        :DESCRIPTION
#----.----    ---------------                              :-------------------
 PDAT.        MEAN SEA LEVEL                               :PERMANENT DATUM
  EPD.M       0.000000                                     :ELEVATION OF PERMANENT DATUM ABOVE MEAN SEA LEVEL
  LMF.        DRILL FLOOR                                  :LOGGING MEASURED FROM (NAME OF LOGGING ELEVATION REFERENCE)
  APD.M       47.020000                                    :ELEVATION OF DEPTH REFERENCE (LMF) ABOVE PERMANENT DATUM
~A        DEPTH             CS           TENS           HTHO           HURA            HFK           HSGR           HCGR           HTPR           HTUR           HUPR           S2TM             DF
# ...
     3324.14880     2139.74200     4902.00000        1.34100        1.26100        0.00300       17.58200        8.96700        4.73600        1.06300        4.45700       15.69600      783.87700
     3324.30120     2140.02400     4992.00000        1.08700        1.65600        0.00200       18.73200        7.15400        4.87800        0.65600        7.43100       15.75400      783.16600
     3324.45360     2140.34600     4955.00000        1.04600        1.69200        0.00200       18.89000        6.91700        4.83000        0.61800        7.81600       15.75400      783.52200
     3324.60600     2137.60000     4988.00000        1.17100        1.67700        0.00200       18.24600        6.47500        6.82500        0.69800        9.77800       15.69600      781.03300
     3324.75840     2134.46200     4913.00000        1.22300        1.37900        0.00200       16.57700        6.65400        7.06500        0.88700        7.96800       15.75400      778.90000
     3324.91080     2136.86400     4985.00000        1.39600        1.24900        0.00200       16.21900        7.12200        8.16500        1.11800        7.30100       15.63800      777.83400
     3325.06320     2133.80500     5093.00000        1.73700        1.18400        0.00200       16.93000        8.21400        9.82200        1.46700        6.69400       15.75400      779.96700
     3325.21560     2136.11400     4920.00000        1.87200        1.00900        0.00200       16.31500        9.16000        9.01700        1.85600        4.85900       15.75400      780.32200
     3325.36800     2138.93000     4977.00000        1.55600        1.06900        0.00100       14.78000        7.19500       10.42400        1.45600        7.16000       15.75400      779.96700
     3325.52040     2135.98100     5027.00000        1.39400        1.01500        0.00100       14.38600        6.73700        9.29800        1.37400        6.76700       15.75400      778.54500
     3325.67280     2138.60100     4967.00000        1.73400        0.97900        0.00200       16.00700        8.57400        8.79000        1.77100        4.96400       15.75400      778.90000
     3325.82520     2138.71900     5004.00000        2.49200        0.89000        0.00300       19.11900       12.27800        8.86600        2.80100        3.16500       15.75400      780.32200
     3325.97760     2138.85500     4955.00000        2.68300        0.96200        0.00300       21.38600       13.86700        7.91900        2.79000        2.83800       15.69600      779.61100
     3326.13000     2142.06300     4953.00000        2.71800        0.70100        0.00400       21.16200       15.56400        6.35400        3.87600        1.63900       15.75400      779.61100
     3326.28240     2142.49500     5075.00000        2.46500        0.60800        0.00500       20.55500       15.64100        5.21100        4.05700        1.28400       15.75400      778.90000
     3326.43480     2143.17000     5006.00000        2.29600        0.85400        0.00400       21.09200       14.58400        5.20000        2.69000        1.93300       15.75400      777.47800
     3326.58720     2146.99400     5008.00000        2.36400        1.01200        0.00500       22.78300       15.49900        4.90800        2.33700        2.10000       15.75400      776.41200
     3326.73960     2145.19800     4959.00000        2.25600        1.11400        0.00500       23.08800       15.22200        4.66500        2.02500        2.30400       15.75400      776.76700
     3326.89200     2143.14600     4899.00000        2.01700        1.06600        0.00400       21.53800       13.76700        4.57100        1.89100        2.41700       15.75400      776.41200
     3327.04440     2137.81000     4954.00000        1.94000        0.94100        0.00500       20.48600       13.89200        4.21200        2.06200        2.04300       15.69600      778.54500
     3327.19680     2134.51600     4958.00000        1.96400        0.96300        0.00400       19.96200       13.38900        4.58300        2.04000        2.24600       15.75400      778.54500
     3327.34920     2134.05200     4988.00000        1.74400        1.03800        0.00400       19.27400       12.09500        4.44900        1.68100        2.64700       15.69600      777.83400
     3327.50160     2136.57300     4884.00000        1.43600        1.28500        0.00300       18.48700        9.98700        4.42800        1.11800        3.96100       15.75400      777.47800
     3327.65400     2133.28800     4994.00000        1.59300        1.35900        0.00300       19.49800       10.77200        4.64900        1.17200        3.96600       15.63800      774.99000
     3327.80640     2135.87800     4958.00000        1.56700        1.51800        0.00300       20.05700       10.14200        5.02300        1.03200        4.86500       15.75400      774.99000
     3327.95880     2138.48200     5040.00000        1.56200        1.90800        0.00300       22.99800       10.29200        4.86400        0.81800        5.94300       15.75400      776.05600
     3328.11120     2135.47000     5011.00000        2.22200        1.77800        0.00300       24.75400       12.65100        6.42700        1.24900        5.14400       15.52100      778.18900
     3328.26360     2138.19400     4982.00000        2.24100        1.81000        0.00400       26.38700       13.57400        5.68900        1.23800        4.59400       15.75400      777.83400
     3328.41600     2138.25500     4907.00000        1.86600        1.63300        0.00400       24.86500       13.21700        4.29100        1.14300        3.75500       15.75400      775.70100
     3328.56840     2138.14300     4996.00000        1.38700        1.32100        0.00400       20.43400       10.52900        3.82400        1.05000        3.64300       15.75400      776.41200
     3328.72080     2141.07100     4916.00000        1.11900        1.14900        0.00300       17.32000        8.31400        3.96400        0.97400        4.06900       15.69600      776.05600
     3328.87320     2138.61400     5131.00000        0.94900        1.02700        0.00300       15.51200        7.29800        3.74300        0.92400        4.05200       15.75400      777.47800
     3329.02560     2141.60900     5094.00000        1.11100        1.19600        0.00300       17.53500        8.20800        3.99900        0.92900        4.30500       15.75400      776.76700
     3329.17800     2145.20900     5082.00000        0.96800        1.12700        0.00300       17.49000        8.52400        3.03800        0.85900        3.53700       15.69600      777.83400
     3329.33040     2143.15800     5026.00000        0.84500        1.17700        0.00300       16.99200        7.54800        2.97300        0.71800        4.14100       15.75400      773.21200
     3329.48280     2143.74700     4890.00000        0.86600        1.21800        0.00300       17.30200        7.66700        3.01400        0.71100        4.23800       15.75400      773.21200
     3329.63520     2144.78200     4970.00000        1.25400        1.09300        0.00300       18.49500        9.72100        3.69800        1.14700        3.22300       15.75400      773.56800
     3329.78760     2142.67000     4968.00000        0.98100        1.14100        0.00400       19.16500        9.86500        2.50800        0.86000        2.91700       15.75400      773.92300
     3329.94000     2140.25600     4933.00000        0.72700        1.15300        0.00300       16.20300        7.28500        2.51900        0.63000        3.99600       15.75400      774.99000
     3330.09240     2137.49700     4960.00000        0.75000        1.18900        0.00200       15.22800        6.26100        3.29300        0.63100        5.22100       15.75400      774.99000
     3330.24480     2140.51100     4850.00000        0.76400        1.32100        0.00200       15.84700        6.10800        3.51900        0.57800        6.08700       15.75400      774.27900
