~VERSION
 VERS.        2.0                                          :CWLS LOG ASCII STANDARD - VERSION 2.0
 WRAP.        NO                                           :ONE LINE PER DEPTH STEP
~WELL
#       MNEM.UNIT                DATA                    DESCRIPTION OF MNEMONIC
#----------------------    ----------------              -----------------------
 STRT.M       3210.00000                                                                                     :START DEPTH
 STOP.M       3934.66200                                                                                     :STOP DEPTH
 STEP.M       0.15240                                                                                        :STEP DEPTH
 NULL.        -999.25000                                                                                     :NULL VALUE
 COMP.        PanCanadian Petroleum Limited                                                                  :COMPANY NAME
 WELL.        Panuke M-79A                                                                                   :WELL NAME
  FLD.        Panuke                                                                                         :FIELD NAME
  LOC.        Panuke                                                                                         :LOCATION / LEASE
 PROV.        Nova Scotia                                                                                    :PROVINCE
 CTRY.        CANADA                                                                                         :COUNTRY
 SRVC.        SPERRY-SUN DRILLING SERVICES                                                                   :SERVICE COMPANY
 DATE.        29-Oct-2000                                                                                    :DATE
  UWI.        300M794350060301                                                                               :UNIQUE WELL ID
 LATI.DEG     43 48' 32.10" N                                                                                :LATITUDE
 LONG.DEG     60 41' 59.81" W                                                                                :LONGITUDE
~CURVE
#MNEM.UNIT    VALUE                                        :DESCRIPTION
#----.----    ---------------                              :-------------------
 DEPT.M       00 001 00 00                                 :Depth Index
  TVD.M                                                    :TVD C=LAST G=1M
 SROP.M/HR                                                 :RATE OF PENETRATION C=SMOOTHED@0.5M G=1M
 SGRC.API                                                  :GAMMA RAY C=SMOOTHED@0.5M G=1M
 SEDP.OHMM                                                 :DEEP EWR PHASE RES  C=MEAN G=1M
 SEMP.OHMM                                                 :MEDIUM EWR PHASE RES  C=MEAN G=1M
 SESP.OHMM                                                 :SHALLOW EWR PHASE RES  C=MEAN G=1M
 SEXP.OHMM                                                 :EXT SHALLOW EWR PHASE RES  C=MEAN G=1M
 TEMP.DEGC                                                 :TEMPERATURE C=LAST G=1M
 SFXE.HR                                                   :FORM EXPOS TIME C=SMOOTHED@0.15M G=1M
 ACCC.MM                                                   :CORR CALIPER C=SMOOTHED@0.15M G=1M
 DTCQ.US/M                                                 :COMPRESSIONAL SLOWNESS C=SMOOTHED@0.15M G=1M
 DTSQ.US/M                                                 :SHEAR SLOWNESS C=SMOOTHED@0.15M G=1M
 SPLF.PU                                                   :NEUTRON POROSITY C=SMOOTHED@.2M G=1M
 SBD2.KPM                                                  :BULK DENSITY C=SMOOTHED@.2M G=1M
 SCO2.KPM                                                  :STANDOFF CORRECTION C=SMOOTHED@.2M G=1M
 SNPE.B/E                                                  :PHOTO ELECTRIC C=SMOOTHED@.2M G=1M
~PARAMETER
#MNEM.UNIT    VALUE                                        :DESCRIPTION
#----.----    ---------------                              :-------------------
 PDAT.        MEAN SEA LEVEL                               :PERMANENT DATUM
  EPD.M       0.000000                                     :ELEVATION OF PERMANENT DATUM ABOVE MEAN SEA LEVEL
  LMF.        DRILL FLOOR                                  :LOGGING MEASURED FROM (NAME OF LOGGING ELEVATION REFERENCE)
  APD.M       47.020000                                    :ELEVATION OF DEPTH REFERENCE (LMF) ABOVE PERMANENT DATUM
~OTHER
#SPERRY-SUN DRILLING SERVICES WILL USE ITS BEST EFFORTS TO FURNISH CUSTOMERS
# WITH ACCURATE INFORMATION AND INTERPRETATIONS THAT ARE PART OF, AND INCIDENT
# TO, THE SERVICES PROVIDED.  HOWEVER, SPERRY-SUN DRILLING SERVICES CANNOT AND
# DOES NOT WARRANT THE ACCURACY OR CORRECTNESS OF SUCH INFORMATION AND
# INTERPRETATIONS.  UNDER NO CIRCUMSTANCES SHOULD ANY SUCH INFORMATION OR
# INTERPRETATION BE RELIED UPON AS THE SOLE BASIS FOR ANY DRILLING, COMPLETION,
# PRODUCTION, OR FINANCIAL DECISION OR ANY PROCEDURE INVOLVING ANY RISK TO THE
# SAFETY OF ANY DRILLING VENTURE, DRILLING RIG OR ITS CREW OR ANY THIRD PARTY.
# THE CUSTOMER HAS FULL RESPONSIBILITY FOR ALL DRILLING, COMPLETION, AND
# PRODUCTION OPERATION.  SPERRY-SUN DRILLING SERVICES MAKES NO REPRESENTATIONS
# OR WARRANTIES, EITHER EXPRESSED OR IMPLIED, INCLUDING, BUT NOT LIMITED TO,
# THE IMPLIED WARRANTIES OF MERCHANTABILITY OR FITNESS FOR A PARTICULAR PURPOSE,
# WITH RESPECT TO THE SERVICES RENDERED.  IN NO EVENT WILL SPERRY-SUN DRILLING
# SERVICES BE LIABLE FOR FAILURE TO OBTAIN ANY PARTICULAR RESULTS OR FOR ANY
# DAMAGES, INCLUDING, BUT NOT LIMITED TO, INDIRECT, SPECIAL OR CONSEQUENTIAL
# DAMAGES, RESULTING FROM THE USE OF ANY INFORMATION OR INTERPRETATION PROVIDED
# BY SPERRY-SUN DRILLING SERVICES.
~ASCII     DEPT            TVD           SROP           SGRC           SEDP           SEMP           SESP           SEXP           TEMP           SFXE           ACCC           DTCQ           DTSQ           SPLF           SBD2           SCO2           SNPE
# ...
     3497.73120     3432.36000        4.30000       31.74000       43.88000       32.21000       25.20000       19.41000       67.70000        3.92000      225.86000      184.00000      367.00000        6.43000     2672.00000       57.00000        3.78000
     3497.88360     3432.41000        3.70000       30.49000       43.35000       30.88000       24.67000       20.18000       67.70000        3.93000      229.34000      184.00000      363.00000        6.49000     2689.00000       57.00000        3.65000
     3498.03600     3432.49000        2.50000       29.23000       49.36000       34.76000       30.54000       27.16000       67.70000        3.97000      220.65000      180.00000      346.00000        5.47000     2682.00000       42.00000        3.70000
     3498.18840     3432.55000        2.00000       28.99000       51.34000       36.19000       32.79000       29.29000       67.70000        3.97000      220.41000      180.00000      342.00000        5.69000     2654.00000       33.00000        3.86000
     3498.34080     3432.64000        3.40000       29.55000       50.96000       36.03000       32.26000       26.28000       67.70000        3.93000      225.59000      179.00000      343.00000        5.97000     2657.00000       41.00000        4.02000
     3498.49320     3432.69000        3.50000       30.14000       50.29000       35.74000       31.31000       24.91000       67.70000        3.91000      226.02000      177.00000      346.00000        6.03000     2681.00000       47.00000        3.96000
     3498.64560     3432.79000        3.60000       30.30000       54.49000       40.74000       34.42000       27.85000       67.70000        3.92000      223.63000      177.00000      348.00000        5.24000     2730.00000       56.00000        4.23000
     3498.79800     3432.84000        3.50000       30.39000       58.72000       44.57000       38.99000       31.03000       67.70000        3.92000      225.49000      177.00000      351.00000        4.87000     2730.00000       60.00000        4.18000
     3498.95040     3432.93000        2.80000       28.49000       66.65000       52.67000       46.90000       37.07000       67.70000        3.96000      231.32000      181.00000      361.00000        4.09000     2694.00000       52.00000        4.00000
     3499.10280     3432.98000        2.30000       27.01000       72.21000       59.68000       55.50000       47.28000       67.70000        3.96000      226.48000      180.00000      361.00000        3.59000     2676.00000       38.00000        4.08000
     3499.25520     3433.08000        2.30000       25.29000       79.90000       72.52000       77.24000       69.76000       67.70000        3.92000      223.98000      174.00000      348.00000        2.57000     2630.00000       16.00000        4.55000
     3499.40760     3433.12000        2.90000       23.86000       80.61000       72.90000       79.25000       67.80000       67.70000        3.92000      218.14000      178.00000      347.00000        2.50000     2624.00000       30.00000        4.32000
     3499.56000     3433.22000        3.10000       20.59000       83.50000       78.23000       83.73000       58.69000       67.70000        3.96000      222.25000      177.00000      347.00000        2.74000     2712.00000       81.00000        4.08000
     3499.71240     3433.27000        3.30000       19.44000       92.46000       90.72000      111.26000       70.34000       67.70000        4.08000      219.36000      177.00000      348.00000        2.69000     2739.00000       85.00000        4.23000
     3499.86480     3433.37000        3.30000       17.77000       94.56000       92.22000      125.82000       64.93000       67.70000        4.82000      222.79000      169.00000      345.00000        2.58000     2700.00000       62.00000        4.11000
     3500.01720     3433.41000        3.30000       17.19000       93.71000       92.28000      127.98000       61.53000       67.70000        4.91000      225.61000      166.00000      339.00000        2.59000     2687.00000       54.00000        4.15000
     3500.16960     3433.51000        2.70000       16.41000      104.54000      108.05000      171.89000       90.30000       67.70000        4.88000      219.19000      170.00000      316.00000        2.07000     2684.00000       56.00000        4.32000
     3500.32200     3433.56000        3.30000       16.21000      108.46000      113.41000      212.09000      105.50000       67.10000        4.88000      217.75000      169.00000      314.00000        2.22000     2683.00000       45.00000        4.50000
     3500.47440     3433.65000        4.20000       14.95000       99.00000      101.82000      175.77000      108.91000       67.10000        4.92000      217.65000      167.00000      326.00000        2.49000     2701.00000       48.00000        4.11000
     3500.62680     3433.75000        4.70000       13.59000       80.81000       76.31000       85.76000       57.18000       67.10000        4.92000      222.22000      165.00000      328.00000        2.52000     2672.00000       25.00000        4.28000
     3500.77920     3433.80000        4.70000       13.29000       86.01000       80.22000       90.05000       60.98000       67.10000        4.92000      219.82000      165.00000      328.00000        2.51000     2664.00000       19.00000        4.05000
     3500.93160     3433.89000        5.10000       13.11000       86.83000       83.76000       90.57000       57.60000       67.10000        4.96000      217.32000      167.00000      331.00000        2.90000     2657.00000        4.00000        4.46000
     3501.08400     3433.94000        4.80000       14.06000       87.87000       87.45000       94.03000       57.73000       67.10000        4.98000      220.79000      166.00000      331.00000        2.87000     2692.00000       10.00000        4.57000
     3501.23640     3434.04000        4.00000       15.65000       92.90000       92.08000       99.18000       60.68000       67.10000        5.01000      226.97000      164.00000      329.00000        2.97000     2688.00000       15.00000        4.67000
     3501.38880     3434.09000        3.60000       16.80000       93.41000       93.20000       99.29000       60.54000       67.10000        5.04000      228.16000      165.00000      329.00000        3.04000     2680.00000       17.00000        4.52000
     3501.54120     3434.18000        3.50000       18.33000      105.33000      109.11000      128.04000       85.94000       67.10000        5.13000      228.05000      164.00000      327.00000        3.12000     2714.00000       40.00000        4.35000
     3501.69360     3434.22000        3.90000       18.56000       90.27000       89.42000       98.81000       66.23000       66.50000        5.25000      227.54000      165.00000      326.00000        3.25000     2697.00000       21.00000        4.38000
     3501.84600     3434.32000        3.30000       19.19000       65.36000       61.57000       60.24000       41.10000       66.50000        5.31000      225.93000      166.00000      327.00000        3.00000     2703.00000       26.00000        4.32000
     3501.99840     3434.37000        2.90000       19.24000       78.36000       73.92000       71.47000       45.77000       66.50000        5.30000      226.81000      169.00000      329.00000        3.20000     2712.00000       41.00000        4.26000
     3502.15080     3434.46000        3.70000       19.71000       95.23000       89.25000       83.35000       45.08000       66.50000        5.34000      221.83000      167.00000      329.00000        3.15000     2742.00000       65.00000        4.28000
     3502.30320     3434.50000        3.70000       20.12000      113.15000      115.94000      115.51000       57.11000       66.50000        5.42000      226.64000      168.00000      328.00000        2.94000     2743.00000       55.00000        4.32000
     3502.45560     3434.59000        3.30000       20.20000      104.24000      106.99000      106.23000       54.89000       66.50000        5.47000      228.81000      172.00000      324.00000        2.90000     2714.00000       16.00000        4.56000
