~VERSION
 VERS.        2.0                                          :CWLS LOG ASCII STANDARD - VERSION 2.0
 WRAP.        NO                                           :ONE LINE PER DEPTH STEP
~WELL
#       MNEM.UNIT                DATA                    DESCRIPTION OF MNEMONIC
#----------------------    ----------------              -----------------------
 STRT.M       3210.00000                                                                                     :START DEPTH
 STOP.M       3934.66200                                                                                     :STOP DEPTH
 STEP.M       0.15240                                                                                        :STEP DEPTH
 NULL.        -999.25000                                                                                     :NULL VALUE
 COMP.        PanCanadian Petroleum Limited                                                                  :COMPANY NAME
 WELL.        Panuke M-79A                                                                                   :WELL NAME
  FLD.        Panuke                                                                                         :FIELD NAME
  LOC.        Panuke                                                                                         :LOCATION / LEASE
 PROV.        Nova Scotia                                                                                    :PROVINCE
 CTRY.        CANADA                                                                                         :COUNTRY
 SRVC.        SPERRY-SUN DRILLING SERVICES                                                                   :SERVICE COMPANY
 DATE.        29-Oct-2000                                                                                    :DATE
  UWI.        300M794350060301                                                                               :UNIQUE WELL ID
 LATI.DEG     43 48' 32.10" N                                                                                :LATITUDE
 LONG.DEG     60 41' 59.81" W                                                                                :LONGITUDE
~CURVE
#MNEM.UNIT    VALUE                                        :DESCRIPTION
#----.----    ---------------                              :-------------------
 DEPT.M       00 001 00 00                                 :Depth Index
  TVD.M                                                    :TVD C=LAST G=1M
 SROP.M/HR                                                 :RATE OF PENETRATION C=SMOOTHED@0.5M G=1M
 SGRC.API                                                  :GAMMA RAY C=SMOOTHED@0.5M G=1M
 SEDP.OHMM                                                 :DEEP EWR PHASE RES  C=MEAN G=1M
 SEMP.OHMM                                                 :MEDIUM EWR PHASE RES  C=MEAN G=1M
 SESP.OHMM                                                 :SHALLOW EWR PHASE RES  C=MEAN G=1M
 SEXP.OHMM                                                 :EXT SHALLOW EWR PHASE RES  C=MEAN G=1M
 TEMP.DEGC                                                 :TEMPERATURE C=LAST G=1M
 SFXE.HR                                                   :FORM EXPOS TIME C=SMOOTHED@0.15M G=1M
 ACCC.MM                                                   :CORR CALIPER C=SMOOTHED@0.15M G=1M
 DTCQ.US/M                                                 :COMPRESSIONAL SLOWNESS C=SMOOTHED@0.15M G=1M
 DTSQ.US/M                                                 :SHEAR SLOWNESS C=SMOOTHED@0.15M G=1M
 SPLF.PU                                                   :NEUTRON POROSITY C=SMOOTHED@.2M G=1M
 SBD2.KPM                                                  :BULK DENSITY C=SMOOTHED@.2M G=1M
 SCO2.KPM                                                  :STANDOFF CORRECTION C=SMOOTHED@.2M G=1M
 SNPE.B/E                                                  :PHOTO ELECTRIC C=SMOOTHED@.2M G=1M
~PARAMETER
#MNEM.UNIT    VALUE                                        :DESCRIPTION
#----.----    ---------------                              :-------------------
 PDAT.        MEAN SEA LEVEL                               :PERMANENT DATUM
  EPD.M       0.000000                                     :ELEVATION OF PERMANENT DATUM ABOVE MEAN SEA LEVEL
  LMF.        DRILL FLOOR                                  :LOGGING MEASURED FROM (NAME OF LOGGING ELEVATION REFERENCE)
  APD.M       47.020000                                    :ELEVATION OF DEPTH REFERENCE (LMF) ABOVE PERMANENT DATUM
~OTHER
#SPERRY-SUN DRILLING SERVICES WILL USE ITS BEST EFFORTS TO FURNISH CUSTOMERS
# WITH ACCURATE INFORMATION AND INTERPRETATIONS THAT ARE PART OF, AND INCIDENT
# TO, THE SERVICES PROVIDED.  HOWEVER, SPERRY-SUN DRILLING SERVICES CANNOT AND
# DOES NOT WARRANT THE ACCURACY OR CORRECTNESS OF SUCH INFORMATION AND
# INTERPRETATIONS.  UNDER NO CIRCUMSTANCES SHOULD ANY SUCH INFORMATION OR
# INTERPRETATION BE RELIED UPON AS THE SOLE BASIS FOR ANY DRILLING, COMPLETION,
# PRODUCTION, OR FINANCIAL DECISION OR ANY PROCEDURE INVOLVING ANY RISK TO THE
# SAFETY OF ANY DRILLING VENTURE, DRILLING RIG OR ITS CREW OR ANY THIRD PARTY.
# THE CUSTOMER HAS FULL RESPONSIBILITY FOR ALL DRILLING, COMPLETION, AND
# PRODUCTION OPERATION.  SPERRY-SUN DRILLING SERVICES MAKES NO REPRESENTATIONS
# OR WARRANTIES, EITHER EXPRESSED OR IMPLIED, INCLUDING, BUT NOT LIMITED TO,
# THE IMPLIED WARRANTIES OF MERCHANTABILITY OR FITNESS FOR A PARTICULAR PURPOSE,
# WITH RESPECT TO THE SERVICES RENDERED.  IN NO EVENT WILL SPERRY-SUN DRILLING
# SERVICES BE LIABLE FOR FAILURE TO OBTAIN ANY PARTICULAR RESULTS OR FOR ANY
# DAMAGES, INCLUDING, BUT NOT LIMITED TO, INDIRECT, SPECIAL OR CONSEQUENTIAL
# DAMAGES, RESULTING FROM THE USE OF ANY INFORMATION OR INTERPRETATION PROVIDED
# BY SPERRY-SUN DRILLING SERVICES.
~ASCII     DEPT            TVD           SROP           SGRC           SEDP           SEMP           SESP           SEXP           TEMP           SFXE           ACCC           DTCQ           DTSQ           SPLF           SBD2           SCO2           SNPE
# ...
     3448.96320     3405.06000        4.00000       24.71000      202.47000      158.74000      146.01000       85.92000       65.90000        3.88000      223.06000      166.00000      331.00000        3.21000     2686.00000       51.00000        4.42000
     3449.11560     3405.12000        3.90000       23.67000      213.04000      159.60000      139.49000       87.47000       65.90000        3.89000      221.40000      167.00000      331.00000        3.21000     2685.00000       45.00000        4.59000
     3449.26800     3405.24000        4.80000       20.38000      249.67000      188.12000      179.91000      117.17000       65.90000        3.90000      223.11000      166.00000      333.00000        3.17000     2718.00000       75.00000        4.63000
     3449.42040     3405.30000        4.60000       19.17000      164.19000      117.52000       96.65000       65.44000       65.90000        3.91000      224.40000      167.00000      333.00000        3.07000     2737.00000      106.00000        4.41000
     3449.57280     3405.43000        3.50000       17.25000      234.85000      180.11000      172.26000      102.38000       65.90000        3.92000      224.89000      167.00000      329.00000        3.02000     2729.00000      108.00000        4.51000
     3449.72520     3405.55000        2.90000       17.77000      294.78000      238.52000      317.30000      184.80000       65.90000        3.83000      223.21000      167.00000      322.00000        2.92000     2686.00000       75.00000        4.34000
     3449.87760     3405.61000        2.90000       17.77000      233.84000      191.44000      220.58000      115.42000       65.90000        3.77000      222.86000      167.00000      327.00000        3.22000     2677.00000       70.00000        4.53000
     3450.03000     3405.73000        4.10000       17.93000      646.39000      542.00000     2000.00000      288.68000       65.90000        3.69000      221.42000      166.00000      322.00000        3.31000     2674.00000      107.00000        4.39000
     3450.18240     3405.79000        4.30000       17.52000      797.96000      677.66000     2000.00000     2000.00000       65.90000        3.68000      222.86000      166.00000      322.00000        3.18000     2655.00000       97.00000        4.00000
     3450.33480     3405.91000        3.80000       16.46000      235.07000      194.03000      215.67000      113.24000       65.90000        3.65000      223.42000      167.00000      331.00000        2.93000     2642.00000       70.00000        4.26000
     3450.48720     3405.97000        3.10000       16.08000      260.28000      212.34000      222.79000      106.09000       65.90000        3.65000      221.46000      166.00000      327.00000        2.64000     2629.00000       36.00000        4.81000
     3450.63960     3406.09000        2.80000       16.86000      233.86000      183.71000      160.97000       80.37000       65.90000        3.66000      224.21000      165.00000      332.00000        2.59000     2657.00000       48.00000        4.74000
     3450.79200     3406.15000        2.50000       17.25000      174.92000      136.54000      121.74000       67.48000       65.90000        3.68000      231.81000      166.00000      331.00000        2.65000     2704.00000       65.00000        4.28000
     3450.94440     3406.28000        2.60000       16.00000      155.11000      117.51000      102.54000       53.52000       65.90000        3.63000      232.83000      166.00000      319.00000        2.97000     2736.00000      100.00000        4.60000
     3451.09680     3406.34000        2.60000       15.31000      147.81000      111.73000       97.41000       48.45000       65.90000        3.60000      236.34000      166.00000      314.00000        3.20000     2705.00000       92.00000        4.48000
     3451.24920     3406.45000        2.70000       15.44000      228.25000      177.09000      191.90000       68.76000       65.90000        3.56000      233.39000      166.00000      314.00000        3.56000     2645.00000       22.00000        3.62000
     3451.40160     3406.51000        2.60000       16.62000      419.27000      386.28000     2000.00000      139.99000       65.90000        3.55000      229.89000      166.00000      314.00000        4.00000     2646.00000       18.00000        3.90000
     3451.55400     3406.64000        3.10000       19.07000      491.22000      633.89000     2000.00000      226.95000       65.90000        3.55000      224.75000      165.00000      322.00000        4.46000     2654.00000       31.00000        4.26000
     3451.70640     3406.70000        3.10000       20.68000      279.47000      266.93000      700.19000      117.81000       65.90000        3.66000      225.58000      165.00000      330.00000        4.37000     2676.00000       43.00000        4.59000
     3451.85880     3406.82000        3.40000       21.58000      150.33000      108.95000       79.89000       46.79000       65.90000        3.71000      231.95000      162.00000      332.00000        4.71000     2638.00000       48.00000        4.07000
     3452.01120     3406.88000        3.60000       21.67000      175.60000      141.68000      102.02000       47.89000       65.90000        3.70000      236.60000      165.00000      331.00000        4.93000     2648.00000       52.00000        4.05000
     3452.16360     3407.01000        3.40000       21.48000      312.09000      263.32000      198.24000       67.59000       65.90000        3.68000      229.44000      170.00000      329.00000        4.70000     2662.00000       59.00000        4.46000
     3452.31600     3407.07000        3.80000       20.97000      250.00000      250.84000      237.55000       57.73000       66.50000        3.68000      222.38000      171.00000      330.00000        4.55000     2643.00000       37.00000        4.28000
     3452.46840     3407.18000        4.00000       18.85000      229.02000      243.79000      186.29000       61.23000       66.50000        3.67000      226.37000      169.00000      322.00000        4.79000     2706.00000       55.00000        4.43000
     3452.62080     3407.24000        3.60000       18.27000      316.82000      352.12000      144.83000       81.24000       66.50000        3.67000      231.74000      168.00000      320.00000        4.75000     2739.00000       74.00000        4.29000
     3452.77320     3407.36000        2.90000       18.21000      251.69000      230.18000      268.45000       77.90000       66.50000        3.63000      231.74000      167.00000      317.00000        4.58000     2652.00000       55.00000        4.53000
     3452.92560     3407.49000        2.60000       19.36000      181.01000      144.89000      103.37000       52.46000       66.50000        3.61000      247.62000      166.00000      317.00000        4.70000     2728.00000       98.00000        4.35000
     3453.07800     3407.55000        2.80000       21.01000      185.40000      138.21000       99.42000       48.99000       66.50000        3.59000      249.17000      166.00000      314.00000        4.88000     2729.00000       99.00000        4.32000
     3453.23040     3407.67000        3.20000       22.82000      178.82000      135.62000      116.94000       48.28000       66.50000        3.58000      236.79000      165.00000      317.00000        5.63000     2757.00000      118.00000        4.74000
     3453.38280     3407.73000        3.30000       23.46000      198.97000      163.03000      117.21000       50.22000       66.50000        3.56000      229.19000      165.00000      322.00000        5.66000     2773.00000      118.00000        4.90000
     3453.53520     3407.85000        3.40000       24.07000      194.03000      209.35000      144.11000       54.47000       66.50000        3.54000      225.74000      169.00000      331.00000        5.22000     2697.00000       35.00000        4.53000
     3453.68760     3407.91000        4.10000       23.77000      211.72000      188.62000      165.75000       51.31000       66.50000        3.54000      222.32000      167.00000      332.00000        4.96000     2697.00000       35.00000        4.49000
