~VERSION
 VERS.        2.0                                          :CWLS LOG ASCII STANDARD - VERSION 2.0
 WRAP.        NO                                           :ONE LINE PER DEPTH STEP
~WELL
#       MNEM.UNIT                DATA                    DESCRIPTION OF MNEMONIC
#----------------------    ----------------              -----------------------
 STRT.M       3210.00000                                                                                     :START DEPTH
 STOP.M       3934.66200                                                                                     :STOP DEPTH
 STEP.M       0.15240                                                                                        :STEP DEPTH
 NULL.        -999.25000                                                                                     :NULL VALUE
 COMP.        PanCanadian Petroleum Limited                                                                  :COMPANY NAME
 WELL.        Panuke M-79A                                                                                   :WELL NAME
  FLD.        Panuke                                                                                         :FIELD NAME
  LOC.        Panuke                                                                                         :LOCATION / LEASE
 PROV.        Nova Scotia                                                                                    :PROVINCE
 CTRY.        CANADA                                                                                         :COUNTRY
 SRVC.        SPERRY-SUN DRILLING SERVICES                                                                   :SERVICE COMPANY
 DATE.        29-Oct-2000                                                                                    :DATE
  UWI.        300M794350060301                                                                               :UNIQUE WELL ID
 LATI.DEG     43 48' 32.10" N                                                                                :LATITUDE
 LONG.DEG     60 41' 59.81" W                                                                                :LONGITUDE
~CURVE
#MNEM.UNIT    VALUE                                        :DESCRIPTION
#----.----    ---------------                              :-------------------
 DEPT.M       00 001 00 00                                 :Depth Index
  TVD.M                                                    :TVD C=LAST G=1M
 SROP.M/HR                                                 :RATE OF PENETRATION C=SMOOTHED@0.5M G=1M
 SGRC.API                                                  :GAMMA RAY C=SMOOTHED@0.5M G=1M
 SEDP.OHMM                                                 :DEEP EWR PHASE RES  C=MEAN G=1M
 SEMP.OHMM                                                 :MEDIUM EWR PHASE RES  C=MEAN G=1M
 SESP.OHMM                                                 :SHALLOW EWR PHASE RES  C=MEAN G=1M
 SEXP.OHMM                                                 :EXT SHALLOW EWR PHASE RES  C=MEAN G=1M
 TEMP.DEGC                                                 :TEMPERATURE C=LAST G=1M
 SFXE.HR                                                   :FORM EXPOS TIME C=SMOOTHED@0.15M G=1M
 ACCC.MM                                                   :CORR CALIPER C=SMOOTHED@0.15M G=1M
 DTCQ.US/M                                                 :COMPRESSIONAL SLOWNESS C=SMOOTHED@0.15M G=1M
 DTSQ.US/M                                                 :SHEAR SLOWNESS C=SMOOTHED@0.15M G=1M
 SPLF.PU                                                   :NEUTRON POROSITY C=SMOOTHED@.2M G=1M
 SBD2.KPM                                                  :BULK DENSITY C=SMOOTHED@.2M G=1M
 SCO2.KPM                                                  :STANDOFF CORRECTION C=SMOOTHED@.2M G=1M
 SNPE.B/E                                                  :PHOTO ELECTRIC C=SMOOTHED@.2M G=1M
~PARAMETER
#MNEM.UNIT    VALUE                                        :DESCRIPTION
#----.----    ---------------                              :-------------------
 PDAT.        MEAN SEA LEVEL                               :PERMANENT DATUM
  EPD.M       0.000000                                     :ELEVATION OF PERMANENT DATUM ABOVE MEAN SEA LEVEL
  LMF.        DRILL FLOOR                                  :LOGGING MEASURED FROM (NAME OF LOGGING ELEVATION REFERENCE)
  APD.M       47.020000                                    :ELEVATION OF DEPTH REFERENCE (LMF) ABOVE PERMANENT DATUM
~OTHER
#SPERRY-SUN DRILLING SERVICES WILL USE ITS BEST EFFORTS TO FURNISH CUSTOMERS
# WITH ACCURATE INFORMATION AND INTERPRETATIONS THAT ARE PART OF, AND INCIDENT
# TO, THE SERVICES PROVIDED.  HOWEVER, SPERRY-SUN DRILLING SERVICES CANNOT AND
# DOES NOT WARRANT THE ACCURACY OR CORRECTNESS OF SUCH INFORMATION AND
# INTERPRETATIONS.  UNDER NO CIRCUMSTANCES SHOULD ANY SUCH INFORMATION OR
# INTERPRETATION BE RELIED UPON AS THE SOLE BASIS FOR ANY DRILLING, COMPLETION,
# PRODUCTION, OR FINANCIAL DECISION OR ANY PROCEDURE INVOLVING ANY RISK TO THE
# SAFETY OF ANY DRILLING VENTURE, DRILLING RIG OR ITS CREW OR ANY THIRD PARTY.
# THE CUSTOMER HAS FULL RESPONSIBILITY FOR ALL DRILLING, COMPLETION, AND
# PRODUCTION OPERATION.  SPERRY-SUN DRILLING SERVICES MAKES NO REPRESENTATIONS
# OR WARRANTIES, EITHER EXPRESSED OR IMPLIED, INCLUDING, BUT NOT LIMITED TO,
# THE IMPLIED WARRANTIES OF MERCHANTABILITY OR FITNESS FOR A PARTICULAR PURPOSE,
# WITH RESPECT TO THE SERVICES RENDERED.  IN NO EVENT WILL SPERRY-SUN DRILLING
# SERVICES BE LIABLE FOR FAILURE TO OBTAIN ANY PARTICULAR RESULTS OR FOR ANY
# DAMAGES, INCLUDING, BUT NOT LIMITED TO, INDIRECT, SPECIAL OR CONSEQUENTIAL
# DAMAGES, RESULTING FROM THE USE OF ANY INFORMATION OR INTERPRETATION PROVIDED
# BY SPERRY-SUN DRILLING SERVICES.
~ASCII     DEPT            TVD           SROP           SGRC           SEDP           SEMP           SESP           SEXP           TEMP           SFXE           ACCC           DTCQ           DTSQ           SPLF           SBD2           SCO2           SNPE
# ...
     3214.87680     3214.51000        2.50000     -999.25000       13.79000       10.54000        7.69000        5.91000       64.10000       14.75000     -999.25000     -999.25000     -999.25000     -999.25000     -999.25000     -999.25000     -999.25000
     3215.02920     3214.70000        2.60000     -999.25000       17.65000       13.67000       10.31000        8.17000       64.10000       14.72000     -999.25000     -999.25000     -999.25000     -999.25000     -999.25000     -999.25000     -999.25000
     3215.18160     3214.81000        2.40000     -999.25000       18.03000       14.18000       11.11000        9.21000       64.10000       14.70000     -999.25000     -999.25000     -999.25000     -999.25000     -999.25000     -999.25000     -999.25000
     3215.33400     3215.01000        1.30000     -999.25000       16.23000       14.02000       14.22000       12.93000       63.50000       14.67000     -999.25000     -999.25000     -999.25000     -999.25000     -999.25000     -999.25000     -999.25000
     3215.48640     3215.10000        1.00000     -999.25000       15.48000       14.92000       17.72000       15.62000       63.50000       14.60000     -999.25000     -999.25000     -999.25000     -999.25000     -999.25000     -999.25000     -999.25000
     3215.63880     3215.30000        0.60000     -999.25000       12.75000       16.41000       25.19000       22.21000       63.50000       14.34000     -999.25000     -999.25000     -999.25000     -999.25000     -999.25000     -999.25000     -999.25000
     3215.79120     3215.40000        0.60000     -999.25000        9.64000       14.30000       21.53000       20.70000       62.90000       14.03000     -999.25000     -999.25000     -999.25000     -999.25000     -999.25000     -999.25000     -999.25000
     3215.94360     3215.60000        0.50000     -999.25000        4.55000        6.69000        8.09000        8.08000       62.90000       13.49000     -999.25000     -999.25000     -999.25000     -999.25000     -999.25000     -999.25000     -999.25000
     3216.09600     3215.70000        0.50000     -999.25000        2.83000        3.40000        3.82000        3.64000       62.90000       13.23000     -999.25000     -999.25000     -999.25000     -999.25000     -999.25000     -999.25000     -999.25000
     3216.24840     3215.90000        0.60000     -999.25000        1.99000        1.83000        1.78000        1.42000       62.90000       12.97000     -999.25000     -999.25000     -999.25000     -999.25000     -999.25000     -999.25000     -999.25000
     3216.40080     3216.01000        0.70000     -999.25000        2.46000        2.16000        1.98000        1.50000       62.90000       12.85000     -999.25000     -999.25000     -999.25000     -999.25000     -999.25000     -999.25000     -999.25000
     3216.55320     3216.19000        0.80000     -999.25000        3.19000        2.97000        2.60000        2.00000       62.30000       12.58000     -999.25000     -999.25000     -999.25000     -999.25000     -999.25000     -999.25000     -999.25000
     3216.70560     3216.30000        0.80000     -999.25000        3.47000        3.42000        3.04000        2.51000       62.30000       12.47000     -999.25000     -999.25000     -999.25000     -999.25000     -999.25000     -999.25000     -999.25000
     3216.85800     3216.50000        0.80000     -999.25000        3.81000        4.38000        4.25000        3.78000       62.30000       12.27000     -999.25000     -999.25000     -999.25000     -999.25000     -999.25000     -999.25000     -999.25000
     3217.01040     3216.60000        0.80000     -999.25000        3.87000        4.69000        4.64000        4.14000       61.60000       12.18000     -999.25000     -999.25000     -999.25000     -999.25000     -999.25000     -999.25000     -999.25000
     3217.16280     3216.80000        0.90000     -999.25000        4.69000        6.02000        5.23000        4.33000       61.60000       11.99000     -999.25000     -999.25000     -999.25000     -999.25000     -999.25000     -999.25000     -999.25000
     3217.31520     3216.90000        1.00000     -999.25000        5.68000        7.70000        6.58000        5.12000       61.60000       11.90000     -999.25000     -999.25000     -999.25000     -999.25000     -999.25000     -999.25000     -999.25000
     3217.46760     3217.09000        1.20000     -999.25000        7.16000        9.27000        7.88000        6.07000       61.60000       11.72000     -999.25000     -999.25000     -999.25000     -999.25000     -999.25000     -999.25000     -999.25000
     3217.62000     3217.20000        1.30000     -999.25000        7.64000        9.15000        7.84000        6.24000       61.60000       11.69000     -999.25000     -999.25000     -999.25000     -999.25000     -999.25000     -999.25000     -999.25000
     3217.77240     3217.39000        1.20000     -999.25000        8.10000        9.33000        8.16000        6.96000       61.00000       11.62000     -999.25000     -999.25000     -999.25000     -999.25000     -999.25000     -999.25000     -999.25000
     3217.92480     3217.59000        1.30000     -999.25000        9.93000       10.29000        8.84000        7.43000       61.00000       11.50000     -999.25000     -999.25000     -999.25000     -999.25000     -999.25000     -999.25000     -999.25000
     3218.07720     3217.70000        1.40000     -999.25000       10.49000       10.15000        8.59000        7.13000       61.00000       11.45000     -999.25000     -999.25000     -999.25000     -999.25000     -999.25000     -999.25000     -999.25000
     3218.22960     3217.90000        1.40000     -999.25000       10.76000       10.04000        8.51000        7.06000       61.00000       11.38000     -999.25000     -999.25000     -999.25000     -999.25000     -999.25000     -999.25000     -999.25000
     3218.38200     3217.99000        1.40000     -999.25000       11.06000        9.92000        8.32000        6.92000       61.00000       11.35000     -999.25000     -999.25000     -999.25000     -999.25000     -999.25000     -999.25000     -999.25000
     3218.53440     3218.19000        1.60000     -999.25000       12.68000       11.32000        9.77000        8.16000       60.40000       11.28000     -999.25000     -999.25000     -999.25000     -999.25000     -999.25000     -999.25000     -999.25000
     3218.68680     3218.30000        1.60000     -999.25000       11.70000       10.27000        8.68000        7.40000       60.40000       11.19000     -999.25000     -999.25000     -999.25000     -999.25000     -999.25000     -999.25000     -999.25000
     3218.83920     3218.50000        1.90000     -999.25000       13.17000       12.88000       10.36000        8.26000       60.40000       10.83000     -999.25000     -999.25000     -999.25000     -999.25000     -999.25000     -999.25000     -999.25000
     3218.99160     3218.60000        2.00000     -999.25000       13.02000       13.56000       11.79000        9.74000       60.40000       10.68000     -999.25000     -999.25000     -999.25000     -999.25000     -999.25000     -999.25000     -999.25000
     3219.14400     3218.79000        2.40000     -999.25000       11.45000       11.36000        9.99000        9.47000       60.40000       10.63000     -999.25000     -999.25000     -999.25000     -999.25000     -999.25000     -999.25000     -999.25000
     3219.29640     3218.89000        2.60000     -999.25000       10.68000       10.24000        8.92000        8.55000       60.40000       10.61000     -999.25000     -999.25000     -999.25000     -999.25000     -999.25000     -999.25000     -999.25000
     3219.44880     3219.09000        2.40000     -999.25000       10.07000        9.42000        8.26000        7.41000       60.40000       10.61000     -999.25000     -999.25000     -999.25000     -999.25000     -999.25000     -999.25000     -999.25000
     3219.60120     3219.19000        2.60000     -999.25000       10.27000        9.59000        8.44000        7.50000       60.40000       10.60000     -999.25000     -999.25000     -999.25000     -999.25000     -999.25000     -999.25000     -999.25000
