~VERSION
 VERS.        2.0                                          :CWLS LOG ASCII STANDARD - VERSION 2.0
 WRAP.        NO                                           :ONE LINE PER DEPTH STEP
~WELL
#       MNEM.UNIT                DATA                    DESCRIPTION OF MNEMONIC
#----------------------    ----------------              -----------------------
 STRT.M       3210.00000                                                                                     :START DEPTH
 STOP.M       3934.66200                                                                                     :STOP DEPTH
 STEP.M       0.15240                                                                                        :STEP DEPTH
 NULL.        -999.25000                                                                                     :NULL VALUE
 COMP.        PanCanadian Petroleum Limited                                                                  :COMPANY NAME
 WELL.        Panuke M-79A                                                                                   :WELL NAME
  FLD.        Panuke                                                                                         :FIELD NAME
  LOC.        Panuke                                                                                         :LOCATION / LEASE
 PROV.        Nova Scotia                                                                                    :PROVINCE
 CTRY.        CANADA                                                                                         :COUNTRY
 SRVC.        SPERRY-SUN DRILLING SERVICES                                                                   :SERVICE COMPANY
 DATE.        29-Oct-2000                                                                                    :DATE
  UWI.        300M794350060301                                                                               :UNIQUE WELL ID
 LATI.DEG     43 48' 32.10" N                                                                                :LATITUDE
 LONG.DEG     60 41' 59.81" W                                                                                :LONGITUDE
~CURVE
#MNEM.UNIT    VALUE                                        :DESCRIPTION
#----.----    ---------------                              :-------------------
 DEPT.M       00 001 00 00                                 :Depth Index
  TVD.M                                                    :TVD C=LAST G=1M
 SROP.M/HR                                                 :RATE OF PENETRATION C=SMOOTHED@0.5M G=1M
 SGRC.API                                                  :GAMMA RAY C=SMOOTHED@0.5M G=1M
 SEDP.OHMM                                                 :DEEP EWR PHASE RES  C=MEAN G=1M
 SEMP.OHMM                                                 :MEDIUM EWR PHASE RES  C=MEAN G=1M
 SESP.OHMM                                                 :SHALLOW EWR PHASE RES  C=MEAN G=1M
 SEXP.OHMM                                                 :EXT SHALLOW EWR PHASE RES  C=MEAN G=1M
 TEMP.DEGC                                                 :TEMPERATURE C=LAST G=1M
 SFXE.HR                                                   :FORM EXPOS TIME C=SMOOTHED@0.15M G=1M
 ACCC.MM                                                   :CORR CALIPER C=SMOOTHED@0.15M G=1M
 DTCQ.US/M                                                 :COMPRESSIONAL SLOWNESS C=SMOOTHED@0.15M G=1M
 DTSQ.US/M                                                 :SHEAR SLOWNESS C=SMOOTHED@0.15M G=1M
 SPLF.PU                                                   :NEUTRON POROSITY C=SMOOTHED@.2M G=1M
 SBD2.KPM                                                  :BULK DENSITY C=SMOOTHED@.2M G=1M
 SCO2.KPM                                                  :STANDOFF CORRECTION C=SMOOTHED@.2M G=1M
 SNPE.B/E                                                  :PHOTO ELECTRIC C=SMOOTHED@.2M G=1M
~PARAMETER
#MNEM.UNIT    VALUE                                        :DESCRIPTION
#----.----    ---------------                              :-------------------
 PDAT.        MEAN SEA LEVEL                               :PERMANENT DATUM
  EPD.M       0.000000                                     :ELEVATION OF PERMANENT DATUM ABOVE MEAN SEA LEVEL
  LMF.        DRILL FLOOR                                  :LOGGING MEASURED FROM (NAME OF LOGGING ELEVATION REFERENCE)
  APD.M       47.020000                                    :ELEVATION OF DEPTH REFERENCE (LMF) ABOVE PERMANENT DATUM
~OTHER
#SPERRY-SUN DRILLING SERVICES WILL USE ITS BEST EFFORTS TO FURNISH CUSTOMERS
# WITH ACCURATE INFORMATION AND INTERPRETATIONS THAT ARE PART OF, AND INCIDENT
# TO, THE SERVICES PROVIDED.  HOWEVER, SPERRY-SUN DRILLING SERVICES CANNOT AND
# DOES NOT WARRANT THE ACCURACY OR CORRECTNESS OF SUCH INFORMATION AND
# INTERPRETATIONS.  UNDER NO CIRCUMSTANCES SHOULD ANY SUCH INFORMATION OR
# INTERPRETATION BE RELIED UPON AS THE SOLE BASIS FOR ANY DRILLING, COMPLETION,
# PRODUCTION, OR FINANCIAL DECISION OR ANY PROCEDURE INVOLVING ANY RISK TO THE
# SAFETY OF ANY DRILLING VENTURE, DRILLING RIG OR ITS CREW OR ANY THIRD PARTY.
# THE CUSTOMER HAS FULL RESPONSIBILITY FOR ALL DRILLING, COMPLETION, AND
# PRODUCTION OPERATION.  SPERRY-SUN DRILLING SERVICES MAKES NO REPRESENTATIONS
# OR WARRANTIES, EITHER EXPRESSED OR IMPLIED, INCLUDING, BUT NOT LIMITED TO,
# THE IMPLIED WARRANTIES OF MERCHANTABILITY OR FITNESS FOR A PARTICULAR PURPOSE,
# WITH RESPECT TO THE SERVICES RENDERED.  IN NO EVENT WILL SPERRY-SUN DRILLING
# SERVICES BE LIABLE FOR FAILURE TO OBTAIN ANY PARTICULAR RESULTS OR FOR ANY
# DAMAGES, INCLUDING, BUT NOT LIMITED TO, INDIRECT, SPECIAL OR CONSEQUENTIAL
# DAMAGES, RESULTING FROM THE USE OF ANY INFORMATION OR INTERPRETATION PROVIDED
# BY SPERRY-SUN DRILLING SERVICES.
~ASCII     DEPT            TVD           SROP           SGRC           SEDP           SEMP           SESP           SEXP           TEMP           SFXE           ACCC           DTCQ           DTSQ           SPLF           SBD2           SCO2           SNPE
# ...
     3824.47680     3483.27000        4.80000       15.89000      215.95000      165.38000       84.19000       43.95000       75.70000        2.64000      225.55000      170.00000      286.00000        7.05000     2790.00000      108.00000        3.57000
     3824.62920     3483.29000        4.60000       15.65000      187.94000      122.00000       79.91000       36.37000       75.70000        2.62000      229.33000      161.00000      290.00000        5.91000     2688.00000       24.00000        3.35000
     3824.78160     3483.30000        5.00000       15.54000      185.27000      120.68000       64.05000       31.46000       75.70000        2.61000      229.63000      160.00000      292.00000        5.57000     2705.00000       30.00000        3.51000
     3824.93400     3483.32000        5.00000       13.66000     1901.80000     1974.89000      234.94000       54.30000       75.70000        2.57000      230.17000      159.00000      291.00000        4.39000     2751.00000       38.00000        2.99000
     3825.08640     3483.33000        4.80000       13.93000     1901.80000     1974.89000      234.94000       54.30000       75.70000        2.57000      235.95000      168.00000      295.00000        3.86000     2760.00000       44.00000        2.73000
     3825.23880     3483.35000        4.30000       13.86000      198.17000      136.92000       82.51000       26.53000       75.70000        2.52000      234.94000      176.00000      295.00000        3.67000     2757.00000       71.00000        2.89000
     3825.39120     3483.36000        4.70000       13.43000      186.35000      180.93000      120.57000       28.15000       75.70000        2.50000      233.89000      167.00000      295.00000        4.01000     2746.00000       74.00000        2.80000
     3825.54360     3483.37000        5.40000       12.32000      346.93000      373.35000      130.76000       33.38000       75.70000        2.49000      226.91000      155.00000      291.00000        4.44000     2710.00000       44.00000        2.74000
     3825.69600     3483.39000        6.30000       11.40000     2000.00000     2000.00000     2000.00000       86.50000       75.70000        2.49000      226.91000      152.00000      296.00000        4.48000     2725.00000       44.00000        2.94000
     3825.84840     3483.40000        5.90000       11.74000     2000.00000     2000.00000     2000.00000      146.41000       75.70000        2.42000      227.39000      164.00000      307.00000        5.04000     2789.00000       74.00000        3.84000
     3826.00080     3483.41000        7.80000       11.93000     2000.00000     2000.00000     2000.00000      124.96000       75.70000        2.41000      227.39000      164.00000      302.00000        5.24000     2767.00000       69.00000        3.79000
     3826.15320     3483.43000       12.90000       11.77000      522.40000      248.26000      192.43000       63.31000       75.70000        2.30000      230.38000      150.00000      292.00000        5.78000     2687.00000       85.00000        2.83000
     3826.30560     3483.44000       15.00000       11.35000      515.50000      270.23000      181.70000       62.36000       75.70000        2.30000      231.85000      148.00000      301.00000        6.22000     2744.00000      178.00000        2.60000
     3826.45800     3483.46000        9.80000       10.98000      372.60000      289.37000      117.13000       49.74000       75.70000        2.31000      233.30000      173.00000      320.00000        6.74000     2650.00000       91.00000        2.36000
     3826.61040     3483.47000        8.20000       11.24000      286.90000      218.79000       90.34000       43.80000       75.70000        2.31000      232.54000      168.00000      315.00000        6.38000     2662.00000       94.00000        2.36000
     3826.76280     3483.49000        5.10000       13.62000      115.16000       95.46000       58.46000       25.69000       75.70000        2.29000      232.54000      157.00000      276.00000        5.30000     2595.00000       17.00000        3.14000
     3826.91520     3483.50000        5.50000       14.32000       89.11000       79.33000       41.74000       19.44000       75.70000        2.27000      242.90000      157.00000      261.00000        5.09000     2560.00000      -30.00000        3.10000
     3827.06760     3483.52000        5.40000       14.82000       93.70000       72.52000       36.27000       14.73000       75.70000        2.24000      242.90000      150.00000      251.00000        5.07000     2678.00000       76.00000        2.60000
     3827.22000     3483.53000        4.90000       13.59000       98.23000       85.93000       34.95000       13.74000       75.70000        2.22000      238.86000      131.00000      223.00000        5.48000     2723.00000      118.00000        2.42000
     3827.37240     3483.55000        4.90000       11.75000      326.99000      292.49000       56.75000       12.53000       75.70000        2.20000      230.79000      128.00000      262.00000        6.84000     2813.00000      178.00000        2.47000
     3827.52480     3483.57000        5.00000       11.98000     2000.00000      704.90000      129.62000       12.10000       75.70000        2.16000      245.22000      125.00000      267.00000        8.41000     2738.00000      159.00000        2.52000
     3827.67720     3483.58000        4.80000       12.18000      772.64000      306.46000      112.73000       11.67000       75.70000        2.15000      257.28000      124.00000      274.00000        8.91000     2699.00000      164.00000        2.54000
     3827.82960     3483.60000        4.90000       12.41000     2000.00000     2000.00000       94.53000       15.96000       75.70000        2.13000      239.13000      140.00000      290.00000       10.82000     2673.00000       99.00000        2.69000
     3827.98200     3483.61000        4.60000       12.59000     2000.00000     2000.00000      108.49000       17.00000       75.70000        2.11000      239.13000      136.00000      296.00000       12.51000     2717.00000      120.00000        2.71000
     3828.13440     3483.63000        6.40000       12.14000     2000.00000     2000.00000       94.22000       18.08000       75.70000        2.08000      242.51000      153.00000      306.00000       16.42000     2758.00000      150.00000        2.39000
     3828.28680     3483.64000        6.30000       11.68000     2000.00000     2000.00000       88.09000       18.64000       75.70000        2.08000      241.72000      152.00000      302.00000       16.41000     2774.00000      240.00000        2.48000
     3828.43920     3483.66000        4.70000       11.95000     2000.00000     1283.48000      145.48000       28.37000       75.70000        2.04000      240.14000      164.00000      300.00000       15.49000     2559.00000      141.00000        2.60000
     3828.59160     3483.66000        4.90000       12.16000     1075.41000      424.47000       97.32000       22.43000       75.70000        2.01000      241.66000      170.00000      301.00000       15.51000     2470.00000       99.00000        2.66000
     3828.74400     3483.68000        4.40000       11.53000     2000.00000     2000.00000      147.83000       21.63000       75.70000        1.99000      247.89000      165.00000      292.00000       16.34000     2500.00000       94.00000        2.64000
     3828.89640     3483.69000        4.60000       10.88000     2000.00000     2000.00000      201.60000       26.44000       75.70000        1.97000      237.34000      161.00000      292.00000       16.14000     2668.00000      230.00000        2.61000
     3829.04880     3483.71000        5.40000       10.72000      175.24000      102.12000       38.51000       14.59000       75.70000        1.95000      248.42000      157.00000      283.00000       14.57000     2523.00000      176.00000        2.69000
     3829.20120     3483.72000        5.50000       11.54000      159.06000      108.96000       36.62000       13.23000       75.70000        1.93000      251.41000      157.00000      285.00000       13.05000     2610.00000      224.00000        2.82000
