~VERSION
 VERS.        2.0                                          :CWLS Log ASCII Standard - VERSION 2.0
 WRAP.        NO                                           :One Line per depth step
 CREA.        20001106 21.27                               :LAS Creation date <yyyymmdd hh.mm>
#--------------------------------------------------
~WELL
#MNEM.UNIT      DATA             DESCRIPTION
#---- ------ --------------   -----------------------------
 STRT.M       3055.46760                                                                                     :START DEPTH
 STOP.M       3510.83880                                                                                     :STOP DEPTH
 STEP.M       0.15240                                                                                        :STEP
 NULL.        -999.25000                                                                                     :NULL VALUE
 COMP.        PANCANADIAN PETROLEUM LTD.                                                                     :COMPANY
 WELL.        PANCANADIAN PANUKE M-79                                                                        :WELL
  FLD.        PANUKE                                                                                         :FIELD
  LOC.        LAT 43 48' 32.10" N (NAD 27)                                                                   :LOCATION
 PROV.        NOVA SCOTIA                                                                                    :PROVINCE
 CTRY.        CANADA                                                                                         :COUNTRY
 SRVC.        Schlumberger                                                                                   :SERVICE COMPANY
 DATE.        06-Nov-2000                                                                                    :LOG DATE
  UWI.        300M794350060301                                                                               :UNIQUE WELL ID
 LATI.DEG     43 48' 32.10" N                                                                                :LATITUDE
 LONG.DEG     60 41' 59.81" W                                                                                :LONGITUDE
#--------------------------------------------------
~CURVE
#MNEM.UNIT    VALUE                                        :DESCRIPTION
#----.----    ---------------                              :-------------------
 DEPT.M       00 001 00 00                                 :Depth Index
   CS.F/HR                                                 :CABLE SPEED
 TENS.LBF                                                  :CABLE TENSION
 HTHO.PPM                                                  :HNGS FORMATION THORIUM CONCENTRATION
 HURA.PPM                                                  :HNGS FORMATION URANIUM CONCENTRATION
  HFK.                                                     :HNGS FORMATION POTASSIUM CONCENTRATION
 HSGR.GAPI                                                 :HNGS STANDARD GAMMA RAY
 HCGR.GAPI                                                 :HNGS COMPUTED GAMMA RAY
 HTPR.                                                     :HNGS THORIUM/POTASSIUM RATIO
 HTUR.                                                     :HNGS THORIUM/URANIUM RATIO
 HUPR.                                                     :HNGS URANIUM/POTASSIUM RATIO
 S2TM.DEGC                                                 :HNGS DETECTOR 2 TEMPERATURE
   DF.LBF                                                  :UNCALIBRATED DOWNHOLE FORCE
~PARAMETER
#MNEM.UNIT    VALUE                                        :DESCRIPTION
#----.----    ---------------                              :-------------------
 PDAT.        MEAN SEA LEVEL                               :PERMANENT DATUM
  EPD.M       0.000000                                     :ELEVATION OF PERMANENT DATUM ABOVE MEAN SEA LEVEL
  LMF.        DRILL FLOOR                                  :LOGGING MEASURED FROM (NAME OF LOGGING ELEVATION REFERENCE)
  APD.M       47.020000                                    :ELEVATION OF DEPTH REFERENCE (LMF) ABOVE PERMANENT DATUM
~A        DEPTH             CS           TENS           HTHO           HURA            HFK           HSGR           HCGR           HTPR           HTUR           HUPR           S2TM             DF
# ...
     3142.94520     2071.62000     4572.00000        5.76500        1.69900        0.00700       39.78000       29.00900        8.42700        3.39300        2.48300       16.22200      921.10000
     3143.09760     2074.02400     4618.00000        6.19000        1.69700        0.00700       40.05800       29.76700        9.41500        3.64700        2.58100       16.22200      920.74500
     3143.25000     2073.38100     4607.00000        6.63900        1.51300        0.00700       41.32300       31.58800        9.67300        4.38800        2.20400       16.22200      923.23300
     3143.40240     2070.22700     4543.00000        6.51900        1.30400        0.00700       39.71600       31.03800        9.65700        5.00000        1.93200       16.22200      921.10000
     3143.55480     2066.62300     4554.00000        6.34900        1.50200        0.00700       40.61900       30.85700        9.16700        4.22700        2.16900       16.22200      923.58900
     3143.70720     2065.26500     4544.00000        7.06800        1.42000        0.00700       42.48300       33.30600        9.91800        4.97600        1.99300       16.16300      924.30000
     3143.85960     2063.71400     4635.00000        7.90200        1.21400        0.00700       43.07200       35.25700       11.51400        6.50900        1.76900       16.22200      922.87800
     3144.01200     2061.59800     4610.00000        7.14000        1.40400        0.00600       40.45800       31.47800       11.92300        5.08500        2.34500       16.22200      922.87800
     3144.16440     2059.86500     4658.00000        5.39700        1.51600        0.00400       33.81200       23.40400       12.52400        3.56100        3.51700       16.28000      925.72200
     3144.31680     2060.58900     4674.00000        5.17900        1.36100        0.00500       32.86600       23.52100       10.95500        3.80700        2.87800       16.16300      924.30000
     3144.46920     2060.74500     4578.00000        4.74300        1.36100        0.00400       30.17000       20.91700       11.91200        3.48400        3.41900       16.28000      927.14400
     3144.62160     2058.89000     4514.00000        4.18600        1.70100        0.00400       31.16100       19.05400       10.88700        2.46100        4.42500       16.22200      925.36600
     3144.77400     2061.80200     4634.00000        3.75400        1.87600        0.00300       30.06100       16.77000       11.47600        2.00100        5.73500       16.22200      924.30000
     3144.92640     2062.46800     4647.00000        3.86900        2.12300        0.00400       32.11500       17.78500       10.59400        1.82200        5.81400       16.16300      925.72200
     3145.07880     2063.56400     4613.00000        3.95800        1.93700        0.00400       31.25500       18.38100       10.30900        2.04400        5.04500       16.22200      926.78800
     3145.23120     2067.47300     4641.00000        3.48900        1.67900        0.00300       26.30900       15.16300       12.43500        2.07700        5.98600       16.22200      923.58900
     3145.38360     2065.89500     4647.00000        2.90300        1.48300        0.00200       22.31900       12.67100       12.27600        1.95800        6.27000       16.16300      923.58900
     3145.53600     2070.13700     4611.00000        2.74500        1.54600        0.00200       22.50100       12.44100       11.01000        1.77600        6.20100       16.22200      922.16700
     3145.68840     2069.28200     4622.00000        3.63400        1.80100        0.00300       28.12300       16.51900       10.92300        2.01800        5.41400       16.22200      923.23300
     3145.84080     2068.30400     4626.00000        4.05600        2.17300        0.00400       33.96200       19.56500        9.34400        1.86700        5.00500       16.22200      921.10000
     3145.99320     2067.18700     4604.00000        4.87200        2.45500        0.00500       38.50400       22.57500       10.37000        1.98500        5.22400       16.22200      918.61200
     3146.14560     2068.62200     4597.00000        5.04600        2.45200        0.00500       39.02100       23.12800       10.68000        2.05800        5.19000       16.22200      921.10000
     3146.29800     2064.78800     4524.00000        4.65700        2.38400        0.00500       36.92100       21.88400        9.99200        1.95400        5.11400       16.16300      922.87800
     3146.45040     2063.16800     4543.00000        4.26000        1.94800        0.00500       33.65800       21.00800        8.84600        2.18700        4.04500       16.22200      926.78800
     3146.60280     2061.31700     4551.00000        4.01000        1.96900        0.00500       32.81300       19.82200        8.79700        2.03700        4.31900       16.22200      925.36600
     3146.75520     2064.90600     4613.00000        3.76000        2.03900        0.00400       31.85200       18.40900        9.00400        1.84400        4.88300       16.22200      920.74500
     3146.90760     2063.30300     4566.00000        3.81500        2.02100        0.00400       32.93800       18.93400        8.70900        1.88800        4.61300       16.22200      917.54500
     3147.06000     2067.17500     4570.00000        3.87500        1.61100        0.00500       31.22800       19.62500        8.29900        2.40500        3.45100       16.22200      917.54500
     3147.21240     2065.55400     4575.00000        3.89400        1.95500        0.00500       34.29000       20.38500        7.69400        1.99200        3.86300       16.22200      920.03400
     3147.36480     2064.38500     4557.00000        3.40000        1.95400        0.00500       33.39600       19.11800        6.59500        1.74000        3.78900       16.22200      918.61200
     3147.51720     2068.08300     4644.00000        3.56600        2.17200        0.00600       35.96000       20.28800        6.43900        1.64200        3.92100       16.22200      917.54500
     3147.66960     2066.93400     4562.00000        3.29900        2.32500        0.00600       36.09800       19.51800        5.95100        1.41900        4.19400       16.22200      919.67800
     3147.82200     2065.62100     4699.00000        3.20300        2.27000        0.00600       36.97800       20.37000        5.18900        1.41100        3.67700       16.22200      913.63500
     3147.97440     2064.12000     4574.00000        4.09400        1.85500        0.00600       36.97700       22.99200        6.61100        2.20600        2.99600       16.28000      921.81100
     3148.12680     2068.10900     4679.00000        4.48100        1.76400        0.00600       36.69700       23.75300        7.48300        2.54000        2.94600       16.22200      921.81100
     3148.27920     2066.62200     4586.00000        4.09800        1.78800        0.00600       34.97800       21.80600        7.41900        2.29200        3.23700       16.22200      925.36600
     3148.43160     2070.96800     4602.00000        4.07500        1.77300        0.00600       35.20000       22.33700        6.95900        2.29900        3.02700       16.28000      918.25600
     3148.58400     2070.23100     4575.00000        4.21800        1.77600        0.00600       35.35400       23.45700        6.75000        2.37500        2.84200       16.22200      916.12300
     3148.73640     2069.38900     4585.00000        3.98800        2.30800        0.00700       38.51700       23.24600        6.13100        1.72800        3.54900       16.22200      911.85700
     3148.88880     2068.42600     4530.00000        3.81800        2.39200        0.00700       38.69700       22.77100        5.86000        1.59600        3.67100       16.22200      920.74500
     3149.04120     2067.32600     4560.00000        3.96600        2.58400        0.00600       39.15700       22.29700        6.59800        1.53500        4.29900       16.16300      919.67800
