~VERSION
 VERS.        2.0                                          :CWLS Log ASCII Standard - VERSION 2.0
 WRAP.        NO                                           :One Line per depth step
 CREA.        20001106 21.27                               :LAS Creation date <yyyymmdd hh.mm>
#--------------------------------------------------
~WELL
#MNEM.UNIT      DATA             DESCRIPTION
#---- ------ --------------   -----------------------------
 STRT.M       3055.46760                                                                                     :START DEPTH
 STOP.M       3510.83880                                                                                     :STOP DEPTH
 STEP.M       0.15240                                                                                        :STEP
 NULL.        -999.25000                                                                                     :NULL VALUE
 COMP.        PANCANADIAN PETROLEUM LTD.                                                                     :COMPANY
 WELL.        PANCANADIAN PANUKE M-79                                                                        :WELL
  FLD.        PANUKE                                                                                         :FIELD
  LOC.        LAT 43 48' 32.10" N (NAD 27)                                                                   :LOCATION
 PROV.        NOVA SCOTIA                                                                                    :PROVINCE
 CTRY.        CANADA                                                                                         :COUNTRY
 SRVC.        Schlumberger                                                                                   :SERVICE COMPANY
 DATE.        06-Nov-2000                                                                                    :LOG DATE
  UWI.        300M794350060301                                                                               :UNIQUE WELL ID
 LATI.DEG     43 48' 32.10" N                                                                                :LATITUDE
 LONG.DEG     60 41' 59.81" W                                                                                :LONGITUDE
#--------------------------------------------------
~CURVE
#MNEM.UNIT    VALUE                                        :DESCRIPTION
#----.----    ---------------                              :-------------------
 DEPT.M       00 001 00 00                                 :Depth Index
   CS.F/HR                                                 :CABLE SPEED
 TENS.LBF                                                  :CABLE TENSION
 HTHO.PPM                                                  :HNGS FORMATION THORIUM CONCENTRATION
 HURA.PPM                                                  :HNGS FORMATION URANIUM CONCENTRATION
  HFK.                                                     :HNGS FORMATION POTASSIUM CONCENTRATION
 HSGR.GAPI                                                 :HNGS STANDARD GAMMA RAY
 HCGR.GAPI                                                 :HNGS COMPUTED GAMMA RAY
 HTPR.                                                     :HNGS THORIUM/POTASSIUM RATIO
 HTUR.                                                     :HNGS THORIUM/URANIUM RATIO
 HUPR.                                                     :HNGS URANIUM/POTASSIUM RATIO
 S2TM.DEGC                                                 :HNGS DETECTOR 2 TEMPERATURE
   DF.LBF                                                  :UNCALIBRATED DOWNHOLE FORCE
~PARAMETER
#MNEM.UNIT    VALUE                                        :DESCRIPTION
#----.----    ---------------                              :-------------------
 PDAT.        MEAN SEA LEVEL                               :PERMANENT DATUM
  EPD.M       0.000000                                     :ELEVATION OF PERMANENT DATUM ABOVE MEAN SEA LEVEL
  LMF.        DRILL FLOOR                                  :LOGGING MEASURED FROM (NAME OF LOGGING ELEVATION REFERENCE)
  APD.M       47.020000                                    :ELEVATION OF DEPTH REFERENCE (LMF) ABOVE PERMANENT DATUM
~A        DEPTH             CS           TENS           HTHO           HURA            HFK           HSGR           HCGR           HTPR           HTUR           HUPR           S2TM             DF
# ...
     3355.39080     2139.63100     4891.00000        1.98100        1.26900        0.00400       21.48700       12.18400        5.52000        1.56100        3.53600       15.57900      744.77200
     3355.54320     2139.71600     4983.00000        2.44000        1.14200        0.00500       24.46900       15.63300        5.11900        2.13700        2.39600       15.63800      743.35000
     3355.69560     2139.99500     5052.00000        2.61100        1.33200        0.00500       26.48900       16.51600        5.24000        1.96000        2.67300       15.63800      741.21700
     3355.84800     2143.18700     5117.00000        2.99500        1.35400        0.00600       30.23800       19.85000        4.81300        2.21200        2.17600       15.57900      739.79500
     3356.00040     2140.66200     4972.00000        2.69500        1.36700        0.00600       29.55000       18.81700        4.39700        1.97200        2.22900       15.63800      744.41700
     3356.15280     2138.14600     5008.00000        2.44300        1.20200        0.00600       28.18400       18.61500        3.80200        2.03300        1.87000       15.63800      741.21700
     3356.30520     2134.90000     5042.00000        2.13400        0.99900        0.00500       23.29800       15.15200        4.27100        2.13500        2.00000       15.63800      743.35000
     3356.45760     2131.37600     5002.00000        1.87800        1.02600        0.00500       21.74400       13.91100        3.98200        1.83100        2.17500       15.63800      742.99500
     3356.61000     2133.51600     4984.00000        2.03100        0.89600        0.00500       21.18400       14.62100        4.17500        2.26600        1.84300       15.63800      739.08400
     3356.76240     2129.79400     4961.00000        2.01700        1.14200        0.00500       23.61800       15.59500        3.71400        1.76600        2.10300       15.63800      738.01800
     3356.91480     2131.52900     4999.00000        1.91200        1.35000        0.00600       24.94200       15.49600        3.44800        1.41700        2.43300       15.57900      734.46300
     3357.06720     2133.51200     5014.00000        2.56700        1.28100        0.00600       27.28400       18.56800        4.14100        2.00400        2.06600       15.63800      734.10800
     3357.21960     2136.13400     4981.00000        3.05100        1.33500        0.00500       26.86400       18.28500        5.80300        2.28500        2.54000       15.57900      735.52900
     3357.37200     2132.97200     4974.00000        3.00700        1.35700        0.00500       25.77300       17.05800        6.47600        2.21700        2.92200       15.57900      737.66200
     3357.52440     2135.33900     4957.00000        3.01700        1.44200        0.00500       25.90800       17.09500        6.49300        2.09200        3.10400       15.63800      735.17400
     3357.67680     2137.33200     4985.00000        3.64800        1.58900        0.00500       28.67700       19.19900        7.60100        2.29600        3.31100       15.57900      735.88500
     3357.82920     2140.32200     4972.00000        4.04600        1.83300        0.00500       31.58700       20.47300        8.31700        2.20700        3.76900       15.63800      734.46300
     3357.98160     2137.38700     4974.00000        3.86400        1.78800        0.00500       31.10300       20.35500        7.58500        2.16100        3.51100       15.63800      735.52900
     3358.13400     2140.56300     4982.00000        3.65900        1.60900        0.00500       29.80500       19.76400        7.17800        2.27300        3.15700       15.63800      734.81800
     3358.28640     2140.96200     5003.00000        3.46100        1.76700        0.00400       29.62100       18.11100        7.69700        1.95900        3.93000       15.57900      738.37300
     3358.43880     2144.29300     5098.00000        3.86100        1.81300        0.00500       32.11300       20.17800        7.72100        2.13000        3.62500       15.63800      732.68500
     3358.59120     2145.04300     5053.00000        3.74100        1.65100        0.00500       30.62800       19.52900        7.74100        2.26600        3.41500       15.63800      737.30700
     3358.74360     2142.96900     5000.00000        2.98100        1.76200        0.00500       29.25100       16.91000        6.47600        1.69200        3.82800       15.57900      733.04100
     3358.89600     2140.59700     4997.00000        2.13200        1.56500        0.00500       25.62000       14.59100        4.55000        1.36300        3.33900       15.63800      733.04100
     3359.04840     2134.89700     5016.00000        2.01500        1.37000        0.00500       24.48300       14.59600        4.13100        1.47100        2.80900       15.63800      729.48600
     3359.20080     2134.30600     4988.00000        1.71000        1.18100        0.00400       21.74100       12.78600        3.92000        1.44800        2.70800       15.63800      730.55200
     3359.35320     2130.69700     5093.00000        1.39900        1.02000        0.00500       20.49400       12.48900        2.97600        1.37100        2.17000       15.63800      735.52900
     3359.50560     2132.56100     4994.00000        1.19900        0.87200        0.00500       18.67300       11.87700        2.55900        1.37500        1.86200       15.63800      736.59600
     3359.65800     2134.69200     4958.00000        1.11000        0.83700        0.00500       18.11800       11.53700        2.39300        1.32600        1.80400       15.63800      737.30700
     3359.81040     2131.13800     5065.00000        0.89700        0.90100        0.00400       17.02100        9.96800        2.18500        0.99600        2.19400       15.63800      738.37300
     3359.96280     2133.06500     5004.00000        0.96900        0.91300        0.00400       17.83700       10.63000        2.22200        1.06100        2.09400       15.63800      737.66200
     3360.11520     2135.44600     5090.00000        0.96100        0.99400        0.00400       17.45200        9.86900        2.43400        0.96700        2.51700       15.63800      731.26300
     3360.26760     2138.16600     5052.00000        1.23400        0.72600        0.00400       15.68500       10.07800        3.40800        1.69900        2.00500       15.63800      734.46300
     3360.42000     2138.04200     4982.00000        1.31000        0.64900        0.00300       14.40100        9.44300        4.16700        2.01900        2.06400       15.52100      728.06400
     3360.57240     2138.08100     4949.00000        1.14100        0.77800        0.00300       14.39900        8.05600        4.31500        1.46700        2.94100       15.63800      735.17400
     3360.72480     2141.00000     4994.00000        1.28400        0.80600        0.00300       15.28100        8.84900        4.49500        1.59200        2.82300       15.63800      731.97500
     3360.87720     2144.69100     4956.00000        1.24700        0.93100        0.00300       15.22000        8.11100        4.98300        1.34100        3.71700       15.63800      735.17400
     3361.02960     2142.75100     5105.00000        1.46000        1.04100        0.00300       16.69400        8.80100        5.73700        1.40300        4.08900       15.57900      735.17400
     3361.18200     2146.15900     5138.00000        1.58500        1.13600        0.00200       17.87300        9.04600        6.39200        1.39500        4.58200       15.63800      734.81800
     3361.33440     2144.05800     5011.00000        1.74800        1.14600        0.00300       18.92700        9.90400        6.49000        1.52400        4.25700       15.63800      729.84200
     3361.48680     2141.84200     5003.00000        1.81100        1.19000        0.00200       18.84100        9.73100        7.26000        1.52200        4.76900       15.63800      723.44200
