~VERSION
 VERS.        2.0                                          :CWLS LOG ASCII STANDARD - VERSION 2.0
 WRAP.        NO                                           :ONE LINE PER DEPTH STEP
~WELL
#       MNEM.UNIT                DATA                    DESCRIPTION OF MNEMONIC
#----------------------    ----------------              -----------------------
 STRT.M       3210.00000                                                                                     :START DEPTH
 STOP.M       3934.66200                                                                                     :STOP DEPTH
 STEP.M       0.15240                                                                                        :STEP DEPTH
 NULL.        -999.25000                                                                                     :NULL VALUE
 COMP.        PanCanadian Petroleum Limited                                                                  :COMPANY NAME
 WELL.        Panuke M-79A                                                                                   :WELL NAME
  FLD.        Panuke                                                                                         :FIELD NAME
  LOC.        Panuke                                                                                         :LOCATION / LEASE
 PROV.        Nova Scotia                                                                                    :PROVINCE
 CTRY.        CANADA                                                                                         :COUNTRY
 SRVC.        SPERRY-SUN DRILLING SERVICES                                                                   :SERVICE COMPANY
 DATE.        29-Oct-2000                                                                                    :DATE
  UWI.        300M794350060301                                                                               :UNIQUE WELL ID
 LATI.DEG     43 48' 32.10" N                                                                                :LATITUDE
 LONG.DEG     60 41' 59.81" W                                                                                :LONGITUDE
~CURVE
#MNEM.UNIT    VALUE                                        :DESCRIPTION
#----.----    ---------------                              :-------------------
 DEPT.M       00 001 00 00                                 :Depth Index
  TVD.M                                                    :TVD C=LAST G=1M
 SROP.M/HR                                                 :RATE OF PENETRATION C=SMOOTHED@0.5M G=1M
 SGRC.API                                                  :GAMMA RAY C=SMOOTHED@0.5M G=1M
 SEDP.OHMM                                                 :DEEP EWR PHASE RES  C=MEAN G=1M
 SEMP.OHMM                                                 :MEDIUM EWR PHASE RES  C=MEAN G=1M
 SESP.OHMM                                                 :SHALLOW EWR PHASE RES  C=MEAN G=1M
 SEXP.OHMM                                                 :EXT SHALLOW EWR PHASE RES  C=MEAN G=1M
 TEMP.DEGC                                                 :TEMPERATURE C=LAST G=1M
 SFXE.HR                                                   :FORM EXPOS TIME C=SMOOTHED@0.15M G=1M
 ACCC.MM                                                   :CORR CALIPER C=SMOOTHED@0.15M G=1M
 DTCQ.US/M                                                 :COMPRESSIONAL SLOWNESS C=SMOOTHED@0.15M G=1M
 DTSQ.US/M                                                 :SHEAR SLOWNESS C=SMOOTHED@0.15M G=1M
 SPLF.PU                                                   :NEUTRON POROSITY C=SMOOTHED@.2M G=1M
 SBD2.KPM                                                  :BULK DENSITY C=SMOOTHED@.2M G=1M
 SCO2.KPM                                                  :STANDOFF CORRECTION C=SMOOTHED@.2M G=1M
 SNPE.B/E                                                  :PHOTO ELECTRIC C=SMOOTHED@.2M G=1M
~PARAMETER
#MNEM.UNIT    VALUE                                        :DESCRIPTION
#----.----    ---------------                              :-------------------
 PDAT.        MEAN SEA LEVEL                               :PERMANENT DATUM
  EPD.M       0.000000                                     :ELEVATION OF PERMANENT DATUM ABOVE MEAN SEA LEVEL
  LMF.        DRILL FLOOR                                  :LOGGING MEASURED FROM (NAME OF LOGGING ELEVATION REFERENCE)
  APD.M       47.020000                                    :ELEVATION OF DEPTH REFERENCE (LMF) ABOVE PERMANENT DATUM
~OTHER
#SPERRY-SUN DRILLING SERVICES WILL USE ITS BEST EFFORTS TO FURNISH CUSTOMERS
# WITH ACCURATE INFORMATION AND INTERPRETATIONS THAT ARE PART OF, AND INCIDENT
# TO, THE SERVICES PROVIDED.  HOWEVER, SPERRY-SUN DRILLING SERVICES CANNOT AND
# DOES NOT WARRANT THE ACCURACY OR CORRECTNESS OF SUCH INFORMATION AND
# INTERPRETATIONS.  UNDER NO CIRCUMSTANCES SHOULD ANY SUCH INFORMATION OR
# INTERPRETATION BE RELIED UPON AS THE SOLE BASIS FOR ANY DRILLING, COMPLETION,
# PRODUCTION, OR FINANCIAL DECISION OR ANY PROCEDURE INVOLVING ANY RISK TO THE
# SAFETY OF ANY DRILLING VENTURE, DRILLING RIG OR ITS CREW OR ANY THIRD PARTY.
# THE CUSTOMER HAS FULL RESPONSIBILITY FOR ALL DRILLING, COMPLETION, AND
# PRODUCTION OPERATION.  SPERRY-SUN DRILLING SERVICES MAKES NO REPRESENTATIONS
# OR WARRANTIES, EITHER EXPRESSED OR IMPLIED, INCLUDING, BUT NOT LIMITED TO,
# THE IMPLIED WARRANTIES OF MERCHANTABILITY OR FITNESS FOR A PARTICULAR PURPOSE,
# WITH RESPECT TO THE SERVICES RENDERED.  IN NO EVENT WILL SPERRY-SUN DRILLING
# SERVICES BE LIABLE FOR FAILURE TO OBTAIN ANY PARTICULAR RESULTS OR FOR ANY
# DAMAGES, INCLUDING, BUT NOT LIMITED TO, INDIRECT, SPECIAL OR CONSEQUENTIAL
# DAMAGES, RESULTING FROM THE USE OF ANY INFORMATION OR INTERPRETATION PROVIDED
# BY SPERRY-SUN DRILLING SERVICES.
~ASCII     DEPT            TVD           SROP           SGRC           SEDP           SEMP           SESP           SEXP           TEMP           SFXE           ACCC           DTCQ           DTSQ           SPLF           SBD2           SCO2           SNPE
# ...
     3356.30400     3341.72000        5.20000     -999.25000       34.84000       26.81000       23.46000       19.03000       65.90000        4.52000     -999.25000     -999.25000     -999.25000     -999.25000     -999.25000     -999.25000     -999.25000
     3356.45640     3341.88000        5.60000     -999.25000       34.20000       26.53000       22.27000       17.80000       65.90000        4.55000     -999.25000     -999.25000     -999.25000     -999.25000     -999.25000     -999.25000     -999.25000
     3356.60880     3341.96000        5.10000     -999.25000       42.66000       32.38000       27.17000       21.66000       65.90000        4.57000     -999.25000     -999.25000     -999.25000     -999.25000     -999.25000     -999.25000     -999.25000
     3356.76120     3342.12000        4.40000     -999.25000       48.84000       35.65000       29.43000       22.10000       65.90000        4.62000     -999.25000     -999.25000     -999.25000     -999.25000     -999.25000     -999.25000     -999.25000
     3356.91360     3342.20000        3.50000     -999.25000       44.82000       32.87000       27.44000       20.98000       65.90000        4.65000     -999.25000     -999.25000     -999.25000     -999.25000     -999.25000     -999.25000     -999.25000
     3357.06600     3342.35000        2.30000     -999.25000       36.29000       27.30000       23.37000       18.40000       65.90000        4.66000     -999.25000     -999.25000     -999.25000     -999.25000     -999.25000     -999.25000     -999.25000
     3357.21840     3342.43000        2.30000     -999.25000       34.42000       27.31000       24.57000       18.68000       65.90000        4.78000     -999.25000     -999.25000     -999.25000     -999.25000     -999.25000     -999.25000     -999.25000
     3357.37080     3342.58000        3.50000     -999.25000       36.41000       29.42000       27.82000       21.26000       65.90000        4.77000     -999.25000     -999.25000     -999.25000     -999.25000     -999.25000     -999.25000     -999.25000
     3357.52320     3342.66000        3.90000     -999.25000       40.08000       33.21000       33.89000       24.49000       65.90000        4.77000     -999.25000     -999.25000     -999.25000     -999.25000     -999.25000     -999.25000     -999.25000
     3357.67560     3342.80000        2.90000     -999.25000       34.77000       29.04000       27.58000       20.52000       65.90000        4.76000     -999.25000     -999.25000     -999.25000     -999.25000     -999.25000     -999.25000     -999.25000
     3357.82800     3342.95000        3.20000     -999.25000       33.54000       28.01000       30.07000       19.09000       65.90000        4.75000     -999.25000     -999.25000     -999.25000     -999.25000     -999.25000     -999.25000     -999.25000
     3357.98040     3343.03000        2.90000     -999.25000       34.13000       29.38000       32.55000       21.11000       65.90000        4.75000     -999.25000     -999.25000     -999.25000     -999.25000     -999.25000     -999.25000     -999.25000
     3358.13280     3343.16000        2.90000     -999.25000       34.90000       30.13000       32.32000       22.08000       65.90000        4.73000     -999.25000     -999.25000     -999.25000     -999.25000     -999.25000     -999.25000     -999.25000
     3358.28520     3343.26000        2.90000     -999.25000       35.09000       29.51000       29.62000       21.04000       65.90000        4.71000     -999.25000     -999.25000     -999.25000     -999.25000     -999.25000     -999.25000     -999.25000
     3358.43760     3343.38000        3.70000     -999.25000       33.84000       26.98000       24.89000       21.16000       65.90000        4.67000     -999.25000     -999.25000     -999.25000     -999.25000     -999.25000     -999.25000     -999.25000
     3358.59000     3343.46000        3.70000     -999.25000       32.61000       25.95000       24.02000       21.02000       65.90000        4.64000     -999.25000     -999.25000     -999.25000     -999.25000     -999.25000     -999.25000     -999.25000
     3358.74240     3343.64000        3.30000     -999.25000       30.13000       23.65000       22.26000       19.50000       65.90000        4.64000     -999.25000     -999.25000     -999.25000     -999.25000     -999.25000     -999.25000     -999.25000
     3358.89480     3343.72000        3.40000     -999.25000       29.26000       22.06000       20.36000       17.04000       65.90000        4.64000     -999.25000     -999.25000     -999.25000     -999.25000     -999.25000     -999.25000     -999.25000
     3359.04720     3343.87000        4.00000     -999.25000       33.98000       27.12000       26.48000       18.44000       65.90000        4.66000     -999.25000     -999.25000     -999.25000     -999.25000     -999.25000     -999.25000     -999.25000
     3359.19960     3343.94000        4.00000     -999.25000       39.81000       33.31000       33.07000       21.39000       65.90000        4.66000     -999.25000     -999.25000     -999.25000     -999.25000     -999.25000     -999.25000     -999.25000
     3359.35200     3344.08000        3.30000     -999.25000       49.12000       41.59000       42.22000       26.19000       65.90000        4.65000     -999.25000     -999.25000     -999.25000     -999.25000     -999.25000     -999.25000     -999.25000
     3359.50440     3344.15000        3.30000     -999.25000       47.52000       41.67000       40.95000       27.26000       65.90000        4.65000     -999.25000     -999.25000     -999.25000     -999.25000     -999.25000     -999.25000     -999.25000
     3359.65680     3344.32000        3.70000     -999.25000       45.88000       39.18000       37.71000       28.06000       65.90000        4.66000     -999.25000     -999.25000     -999.25000     -999.25000     -999.25000     -999.25000     -999.25000
     3359.80920     3344.39000        4.20000     -999.25000       46.96000       40.31000       40.95000       28.56000       65.90000        4.69000     -999.25000     -999.25000     -999.25000     -999.25000     -999.25000     -999.25000     -999.25000
     3359.96160     3344.53000        3.90000     -999.25000       44.78000       37.05000       37.12000       25.94000       65.90000        4.72000     -999.25000     -999.25000     -999.25000     -999.25000     -999.25000     -999.25000     -999.25000
     3360.11400     3344.61000        3.90000     -999.25000       43.82000       36.30000       35.89000       25.73000       65.90000        4.72000     -999.25000     -999.25000     -999.25000     -999.25000     -999.25000     -999.25000     -999.25000
     3360.26640     3344.77000        3.40000     -999.25000       45.37000       39.17000       39.78000       27.78000       65.90000        4.72000     -999.25000     -999.25000     -999.25000     -999.25000     -999.25000     -999.25000     -999.25000
     3360.41880     3344.84000        3.30000     -999.25000       47.08000       41.58000       41.02000       26.99000       65.90000        4.73000     -999.25000     -999.25000     -999.25000     -999.25000     -999.25000     -999.25000     -999.25000
     3360.57120     3345.00000        4.50000     -999.25000       55.34000       52.78000       48.10000       28.79000       65.90000        4.74000     -999.25000     -999.25000     -999.25000     -999.25000     -999.25000     -999.25000     -999.25000
     3360.72360     3345.07000        4.20000     -999.25000       61.91000       61.57000       53.94000       31.38000       65.90000        4.75000     -999.25000     -999.25000     -999.25000     -999.25000     -999.25000     -999.25000     -999.25000
     3360.87600     3345.23000        3.20000     -999.25000       65.42000       60.44000       57.79000       36.93000       65.90000        4.75000     -999.25000     -999.25000     -999.25000     -999.25000     -999.25000     -999.25000     -999.25000
     3361.02840     3345.38000        4.90000     -999.25000       58.42000       51.91000       52.85000       31.98000       65.90000        4.75000     -999.25000     -999.25000     -999.25000     -999.25000     -999.25000     -999.25000     -999.25000
