~VERSION
 VERS.        2.0                                          :CWLS Log ASCII Standard - VERSION 2.0
 WRAP.        NO                                           :One Line per depth step
 CREA.        20001106 21.27                               :LAS Creation date <yyyymmdd hh.mm>
#--------------------------------------------------
~WELL
#MNEM.UNIT      DATA             DESCRIPTION
#---- ------ --------------   -----------------------------
 STRT.M       3055.46760                                                                                     :START DEPTH
 STOP.M       3510.83880                                                                                     :STOP DEPTH
 STEP.M       0.15240                                                                                        :STEP
 NULL.        -999.25000                                                                                     :NULL VALUE
 COMP.        PANCANADIAN PETROLEUM LTD.                                                                     :COMPANY
 WELL.        PANCANADIAN PANUKE M-79                                                                        :WELL
  FLD.        PANUKE                                                                                         :FIELD
  LOC.        LAT 43 48' 32.10" N (NAD 27)                                                                   :LOCATION
 PROV.        NOVA SCOTIA                                                                                    :PROVINCE
 CTRY.        CANADA                                                                                         :COUNTRY
 SRVC.        Schlumberger                                                                                   :SERVICE COMPANY
 DATE.        06-Nov-2000                                                                                    :LOG DATE
  UWI.        300M794350060301                                                                               :UNIQUE WELL ID
 LATI.DEG     43 48' 32.10" N                                                                                :LATITUDE
 LONG.DEG     60 41' 59.81" W                                                                                :LONGITUDE
#--------------------------------------------------
~CURVE
#MNEM.UNIT    VALUE                                        :DESCRIPTION
#----.----    ---------------                              :-------------------
 DEPT.M       00 001 00 00                                 :Depth Index
   CS.F/HR                                                 :CABLE SPEED
 TENS.LBF                                                  :CABLE TENSION
 HTHO.PPM                                                  :HNGS FORMATION THORIUM CONCENTRATION
 HURA.PPM                                                  :HNGS FORMATION URANIUM CONCENTRATION
  HFK.                                                     :HNGS FORMATION POTASSIUM CONCENTRATION
 HSGR.GAPI                                                 :HNGS STANDARD GAMMA RAY
 HCGR.GAPI                                                 :HNGS COMPUTED GAMMA RAY
 HTPR.                                                     :HNGS THORIUM/POTASSIUM RATIO
 HTUR.                                                     :HNGS THORIUM/URANIUM RATIO
 HUPR.                                                     :HNGS URANIUM/POTASSIUM RATIO
 S2TM.DEGC                                                 :HNGS DETECTOR 2 TEMPERATURE
   DF.LBF                                                  :UNCALIBRATED DOWNHOLE FORCE
~PARAMETER
#MNEM.UNIT    VALUE                                        :DESCRIPTION
#----.----    ---------------                              :-------------------
 PDAT.        MEAN SEA LEVEL                               :PERMANENT DATUM
  EPD.M       0.000000                                     :ELEVATION OF PERMANENT DATUM ABOVE MEAN SEA LEVEL
  LMF.        DRILL FLOOR                                  :LOGGING MEASURED FROM (NAME OF LOGGING ELEVATION REFERENCE)
  APD.M       47.020000                                    :ELEVATION OF DEPTH REFERENCE (LMF) ABOVE PERMANENT DATUM
~A        DEPTH             CS           TENS           HTHO           HURA            HFK           HSGR           HCGR           HTPR           HTUR           HUPR           S2TM             DF
# ...
     3442.86840     2070.22000     5137.00000        2.08800        1.06900        0.00400       20.94200       13.56100        4.99800        1.95400        2.55800       15.40400      666.56200
     3443.02080     2069.20500     4825.00000        2.00300        1.01800        0.00400       19.54000       12.64800        5.26000        1.96700        2.67400       15.40400      667.27300
     3443.17320     2071.09600     4994.00000        1.73100        1.08600        0.00300       18.36900       11.10500        5.11000        1.59400        3.20600       15.40400      655.18600
     3443.32560     2073.08900     4955.00000        1.86700        1.09400        0.00300       18.07500       10.91200        6.10200        1.70600        3.57600       15.40400      643.45500
     3443.47800     2072.65600     5012.00000        1.90700        1.17600        0.00400       19.94600       12.02200        5.27800        1.62100        3.25600       15.40400      635.98900
     3443.63040     2072.33100     4976.00000        1.77100        1.42000        0.00400       21.01900       11.55400        4.95800        1.24700        3.97500       15.46200      644.16600
     3443.78280     2071.61800     5070.00000        1.53800        1.52000        0.00300       20.49300       10.48800        4.58400        1.01200        4.53000       15.40400      662.65200
     3443.93520     2070.80300     5012.00000        1.44800        1.40200        0.00300       19.08100        9.58400        4.83100        1.03300        4.67800       15.28700      658.74100
     3444.08760     2075.58200     4952.00000        1.27800        1.19400        0.00300       17.61700        9.59200        3.90100        1.07100        3.64300       15.40400      642.38800
     3444.24000     2075.67500     5003.00000        1.37500        1.14700        0.00300       17.00100        9.21400        4.72400        1.19800        3.94100       15.34600      632.07900
     3444.39240     2075.44000     4996.00000        1.25800        1.19000        0.00300       16.45000        8.32800        4.83000        1.05700        4.56900       15.40400      637.05600
     3444.54480     2075.17100     5104.00000        1.42800        1.16800        0.00200       15.97000        7.88800        6.85000        1.22200        5.60500       15.28700      657.31900
     3444.69720     2075.03500     5161.00000        1.29500        1.02800        0.00200       14.65000        7.34400        6.48400        1.26000        5.14600       15.40400      676.16100
     3444.84960     2074.70800     5087.00000        1.51100        0.81400        0.00200       13.96000        8.23300        7.05600        1.85600        3.80200       15.40400      669.05100
     3445.00200     2074.50600     4971.00000        1.49900        0.72000        0.00300       13.99000        8.88500        5.93700        2.08100        2.85300       15.40400      640.96700
     3445.15440     2074.27400     4911.00000        1.24200        0.63900        0.00300       13.38600        8.46300        4.59000        1.94400        2.36200       15.40400      631.72300
     3445.30680     2074.01000     5028.00000        1.19200        0.51200        0.00300       12.14000        8.09800        4.61100        2.32700        1.98200       15.40400      631.72300
     3445.45920     2073.53700     5020.00000        1.22400        0.41600        0.00300       11.51200        8.16900        4.75700        2.44700        1.61700       15.40400      666.91800
     3445.61160     2073.16700     5045.00000        1.30300        0.44900        0.00300       11.91600        8.43200        5.03100        2.60600        1.73500       15.28700      677.22700
     3445.76400     2072.57400     5046.00000        1.36400        0.60400        0.00200       12.92100        8.36800        5.55100        2.25900        2.45700       15.40400      672.60600
     3445.91640     2072.23800     5076.00000        1.21100        0.62700        0.00300       13.23600        8.19900        4.64100        1.93200        2.40200       15.40400      634.92300
     3446.06880     2077.05700     5017.00000        1.65300        0.63900        0.00300       14.21900        9.57200        6.21700        2.58900        2.40100       15.34600      623.54700
     3446.22120     2077.36100     4884.00000        1.52900        0.72300        0.00300       15.11100        9.94800        4.98200        2.11500        2.35500       15.40400      619.99200
     3446.37360     2074.60100     5015.00000        1.48000        0.81800        0.00300       15.40900        9.78200        4.84100        1.80900        2.67700       15.40400      663.36300
     3446.52600     2074.38400     5182.00000        1.37600        0.77800        0.00300       14.70200        9.09800        4.83900        1.76800        2.73700       15.40400      670.47300
     3446.67840     2073.96400     5000.00000        1.24600        0.75600        0.00300       14.17800        8.88500        4.24600        1.64800        2.57700       15.40400      689.31400
     3446.83080     2076.53400     4957.00000        1.07400        0.96200        0.00200       13.19900        6.82800        5.19400        1.11600        4.65400       15.40400      659.80800
     3446.98320     2076.59300     4972.00000        1.32900        0.85700        0.00200       14.11600        8.22000        5.47200        1.55100        3.52700       15.28700      625.68000
     3447.13560     2076.48900     4997.00000        1.28300        0.71300        0.00200       12.84100        7.64800        5.86700        1.79800        3.26300       15.40400      626.03500
     3447.28800     2076.54100     5015.00000        1.14300        0.75400        0.00200       12.86500        7.14700        5.36100        1.51600        3.53600       15.40400      643.45500
     3447.44040     2076.60000     4998.00000        1.01000        0.68400        0.00200       11.30500        6.16400        5.60500        1.47600        3.79600       15.28700      664.07400
     3447.59280     2076.66800     5153.00000        0.87000        0.63300        0.00200       10.20000        5.42600        5.38200        1.37300        3.91900       15.40400      652.69800
     3447.74520     2076.57500     4937.00000        0.65000        0.44400        0.00200        8.59900        4.88300        3.89400        1.30000        2.66200       15.40400      643.45500
     3447.89760     2074.05100     4988.00000        0.52200        0.36100        0.00100        7.17500        4.01800        3.74400        1.04400        2.58900       15.28700      615.01500
     3448.05000     2076.46700     4898.00000        0.48900        0.34800        0.00200        7.79000        4.33700        3.00300        0.97700        2.14000       15.40400      617.50300
     3448.20240     2070.58400     4921.00000        0.43900        0.54700        0.00200        8.84700        4.19500        2.69400        0.80200        3.35700       15.40400      628.16800
     3448.35480     2069.79200     5174.00000        0.74500        0.59500        0.00100        9.89800        4.58200        5.53200        1.25200        4.41800       15.40400      667.62900
     3448.50720     2074.42700     5182.00000        0.84000        0.52800        0.00200       10.37200        5.25500        5.35400        1.59100        3.36500       15.40400      659.80800
     3448.65960     2077.06300     5146.00000        0.43600        0.85700        0.00100       11.29400        3.60900        3.34000        0.50900        6.56100       15.40400      631.72300
     3448.81200     2074.08700     4835.00000        0.60400        0.89500        0.00200       12.43500        4.67200        3.71400        0.67500        5.50600       15.40400      611.81600
     3448.96440     2079.33400     5000.00000        0.82500        0.84600        0.00200       13.17500        5.66600        4.52500        0.97500        4.64300       15.34600      592.97400
