~VERSION
 VERS.        2.0                                          :CWLS LOG ASCII STANDARD - VERSION 2.0
 WRAP.        NO                                           :ONE LINE PER DEPTH STEP
~WELL
#       MNEM.UNIT                DATA                    DESCRIPTION OF MNEMONIC
#----------------------    ----------------              -----------------------
 STRT.M       3210.00000                                                                                     :START DEPTH
 STOP.M       3934.66200                                                                                     :STOP DEPTH
 STEP.M       0.15240                                                                                        :STEP DEPTH
 NULL.        -999.25000                                                                                     :NULL VALUE
 COMP.        PanCanadian Petroleum Limited                                                                  :COMPANY NAME
 WELL.        Panuke M-79A                                                                                   :WELL NAME
  FLD.        Panuke                                                                                         :FIELD NAME
  LOC.        Panuke                                                                                         :LOCATION / LEASE
 PROV.        Nova Scotia                                                                                    :PROVINCE
 CTRY.        CANADA                                                                                         :COUNTRY
 SRVC.        SPERRY-SUN DRILLING SERVICES                                                                   :SERVICE COMPANY
 DATE.        29-Oct-2000                                                                                    :DATE
  UWI.        300M794350060301                                                                               :UNIQUE WELL ID
 LATI.DEG     43 48' 32.10" N                                                                                :LATITUDE
 LONG.DEG     60 41' 59.81" W                                                                                :LONGITUDE
~CURVE
#MNEM.UNIT    VALUE                                        :DESCRIPTION
#----.----    ---------------                              :-------------------
 DEPT.M       00 001 00 00                                 :Depth Index
  TVD.M                                                    :TVD C=LAST G=1M
 SROP.M/HR                                                 :RATE OF PENETRATION C=SMOOTHED@0.5M G=1M
 SGRC.API                                                  :GAMMA RAY C=SMOOTHED@0.5M G=1M
 SEDP.OHMM                                                 :DEEP EWR PHASE RES  C=MEAN G=1M
 SEMP.OHMM                                                 :MEDIUM EWR PHASE RES  C=MEAN G=1M
 SESP.OHMM                                                 :SHALLOW EWR PHASE RES  C=MEAN G=1M
 SEXP.OHMM                                                 :EXT SHALLOW EWR PHASE RES  C=MEAN G=1M
 TEMP.DEGC                                                 :TEMPERATURE C=LAST G=1M
 SFXE.HR                                                   :FORM EXPOS TIME C=SMOOTHED@0.15M G=1M
 ACCC.MM                                                   :CORR CALIPER C=SMOOTHED@0.15M G=1M
 DTCQ.US/M                                                 :COMPRESSIONAL SLOWNESS C=SMOOTHED@0.15M G=1M
 DTSQ.US/M                                                 :SHEAR SLOWNESS C=SMOOTHED@0.15M G=1M
 SPLF.PU                                                   :NEUTRON POROSITY C=SMOOTHED@.2M G=1M
 SBD2.KPM                                                  :BULK DENSITY C=SMOOTHED@.2M G=1M
 SCO2.KPM                                                  :STANDOFF CORRECTION C=SMOOTHED@.2M G=1M
 SNPE.B/E                                                  :PHOTO ELECTRIC C=SMOOTHED@.2M G=1M
~PARAMETER
#MNEM.UNIT    VALUE                                        :DESCRIPTION
#----.----    ---------------                              :-------------------
 PDAT.        MEAN SEA LEVEL                               :PERMANENT DATUM
  EPD.M       0.000000                                     :ELEVATION OF PERMANENT DATUM ABOVE MEAN SEA LEVEL
  LMF.        DRILL FLOOR                                  :LOGGING MEASURED FROM (NAME OF LOGGING ELEVATION REFERENCE)
  APD.M       47.020000                                    :ELEVATION OF DEPTH REFERENCE (LMF) ABOVE PERMANENT DATUM
~OTHER
#SPERRY-SUN DRILLING SERVICES WILL USE ITS BEST EFFORTS TO FURNISH CUSTOMERS
# WITH ACCURATE INFORMATION AND INTERPRETATIONS THAT ARE PART OF, AND INCIDENT
# TO, THE SERVICES PROVIDED.  HOWEVER, SPERRY-SUN DRILLING SERVICES CANNOT AND
# DOES NOT WARRANT THE ACCURACY OR CORRECTNESS OF SUCH INFORMATION AND
# INTERPRETATIONS.  UNDER NO CIRCUMSTANCES SHOULD ANY SUCH INFORMATION OR
# INTERPRETATION BE RELIED UPON AS THE SOLE BASIS FOR ANY DRILLING, COMPLETION,
# PRODUCTION, OR FINANCIAL DECISION OR ANY PROCEDURE INVOLVING ANY RISK TO THE
# SAFETY OF ANY DRILLING VENTURE, DRILLING RIG OR ITS CREW OR ANY THIRD PARTY.
# THE CUSTOMER HAS FULL RESPONSIBILITY FOR ALL DRILLING, COMPLETION, AND
# PRODUCTION OPERATION.  SPERRY-SUN DRILLING SERVICES MAKES NO REPRESENTATIONS
# OR WARRANTIES, EITHER EXPRESSED OR IMPLIED, INCLUDING, BUT NOT LIMITED TO,
# THE IMPLIED WARRANTIES OF MERCHANTABILITY OR FITNESS FOR A PARTICULAR PURPOSE,
# WITH RESPECT TO THE SERVICES RENDERED.  IN NO EVENT WILL SPERRY-SUN DRILLING
# SERVICES BE LIABLE FOR FAILURE TO OBTAIN ANY PARTICULAR RESULTS OR FOR ANY
# DAMAGES, INCLUDING, BUT NOT LIMITED TO, INDIRECT, SPECIAL OR CONSEQUENTIAL
# DAMAGES, RESULTING FROM THE USE OF ANY INFORMATION OR INTERPRETATION PROVIDED
# BY SPERRY-SUN DRILLING SERVICES.
~ASCII     DEPT            TVD           SROP           SGRC           SEDP           SEMP           SESP           SEXP           TEMP           SFXE           ACCC           DTCQ           DTSQ           SPLF           SBD2           SCO2           SNPE
# ...
     3634.28160     3467.15000        2.70000       22.10000       35.03000       33.47000       32.00000       20.63000       65.30000       27.47000      241.34000      168.00000      331.00000        4.56000     2687.00000       36.00000        4.58000
     3634.43400     3467.17000        2.50000       23.21000       40.09000       42.99000       46.48000       27.57000       65.30000       27.42000      236.45000      171.00000      327.00000        4.86000     2701.00000       38.00000        4.44000
     3634.58640     3467.19000        2.50000       24.05000       39.67000       41.76000       41.31000       27.55000       65.30000       27.40000      233.97000      170.00000      325.00000        4.97000     2689.00000       29.00000        4.42000
     3634.73880     3467.21000        2.90000       24.54000       41.14000       42.34000       43.69000       29.56000       65.30000       27.38000      232.97000      167.00000      326.00000        5.23000     2685.00000       30.00000        3.79000
     3634.89120     3467.22000        3.00000       24.09000       44.66000       47.32000       49.32000       33.85000       65.30000       27.37000      233.12000      167.00000      328.00000        5.48000     2677.00000       18.00000        3.51000
     3635.04360     3467.24000        2.90000       23.78000       42.65000       42.11000       39.51000       29.33000       65.30000       27.34000      231.88000      167.00000      329.00000        5.81000     2742.00000       49.00000        4.11000
     3635.19600     3467.25000        2.90000       24.07000       41.00000       41.07000       37.90000       26.14000       65.30000       27.32000      236.27000      168.00000      331.00000        5.96000     2758.00000       58.00000        4.17000
     3635.34840     3467.27000        2.70000       24.93000       40.77000       40.33000       41.20000       27.02000       65.30000       27.28000      238.40000      176.00000      331.00000        6.18000     2690.00000       39.00000        4.11000
     3635.50080     3467.28000        2.60000       25.27000       44.14000       43.72000       39.81000       26.45000       65.30000       27.27000      232.96000      180.00000      338.00000        6.39000     2680.00000       30.00000        4.31000
     3635.65320     3467.30000        2.80000       26.23000       41.02000       40.05000       38.49000       25.81000       65.30000       27.25000      231.40000      176.00000      341.00000        6.47000     2655.00000       17.00000        3.92000
     3635.80560     3467.31000        2.90000       26.35000       39.22000       37.71000       35.67000       24.71000       65.30000       27.24000      231.49000      174.00000      350.00000        6.28000     2662.00000       24.00000        4.09000
     3635.95800     3467.33000        3.30000       25.95000       35.24000       33.68000       28.55000       19.04000       65.30000       27.43000      234.25000      175.00000      348.00000        6.13000     2697.00000       31.00000        4.65000
     3636.11040     3467.34000        2.80000       26.26000       37.64000       34.24000       29.96000       19.26000       65.30000       27.44000      235.46000      177.00000      348.00000        6.21000     2682.00000       26.00000        4.40000
     3636.26280     3467.36000        2.10000       27.05000       43.94000       39.23000       39.79000       21.44000       65.30000       27.43000      235.80000      177.00000      348.00000        6.14000     2743.00000       46.00000        4.62000
     3636.41520     3467.37000        2.10000       27.22000       46.99000       42.60000       46.39000       25.73000       65.30000       27.44000      239.10000      177.00000      351.00000        6.34000     2719.00000       40.00000        4.16000
     3636.56760     3467.39000        3.90000       26.61000       38.39000       37.30000       38.12000       23.04000       65.90000       27.51000      239.82000      177.00000      348.00000        6.33000     2636.00000       26.00000        3.78000
     3636.72000     3467.40000        3.90000       25.34000       42.17000       40.44000       45.27000       26.68000       65.90000       27.54000      240.64000      174.00000      348.00000        6.01000     2618.00000       16.00000        3.63000
     3636.87240     3467.40000        5.10000       22.32000       61.40000       84.37000      221.91000       81.33000       65.90000       22.30000      242.01000      178.00000      345.00000        5.04000     2639.00000       12.00000        3.44000
     3637.02480     3467.40000        3.00000       19.88000       45.36000       51.51000       74.05000       57.30000       65.90000        3.61000      232.63000      182.00000      351.00000        4.11000     2686.00000       18.00000        3.46000
     3637.17720     3467.40000        2.50000       20.04000       40.61000       43.18000       53.86000       42.33000       65.90000        3.62000      229.77000      183.00000      352.00000        4.00000     2706.00000       21.00000        3.41000
     3637.32960     3467.40000        2.40000       20.84000       34.66000       36.50000       37.31000       30.25000       65.90000        3.64000      237.17000      180.00000      353.00000        3.78000     2749.00000       37.00000        3.48000
     3637.48200     3467.48000        2.80000       21.29000       32.38000       32.42000       35.27000       26.29000       65.90000        3.61000      237.72000      184.00000      347.00000        3.87000     2752.00000       36.00000        3.56000
     3637.63440     3467.50000        2.50000       21.60000       37.75000       39.30000       39.33000       35.21000       65.90000        3.61000      236.02000      184.00000      340.00000        4.16000     2667.00000        7.00000        3.58000
     3637.78680     3467.50000        2.70000       21.50000       39.44000       42.50000       42.59000       37.71000       65.90000        3.59000      234.09000      180.00000      338.00000        4.38000     2651.00000        3.00000        3.65000
     3637.93920     3467.53000        2.90000       21.41000       35.29000       35.60000       36.85000       29.64000       65.90000        3.54000      236.50000      173.00000      332.00000        4.66000     2699.00000       11.00000        3.58000
     3638.09160     3467.54000        4.30000       21.25000       32.53000       31.37000       30.39000       25.49000       65.90000        3.52000      235.62000      170.00000      328.00000        4.34000     2696.00000        5.00000        3.42000
     3638.24400     3467.57000        4.60000       20.69000       38.71000       36.84000       45.70000       39.38000       65.90000        3.46000      232.80000      166.00000      322.00000        3.73000     2645.00000       -1.00000        3.63000
     3638.39640     3467.58000        3.60000       20.24000       37.26000       35.28000       41.57000       38.13000       65.90000        3.42000      231.57000      164.00000      322.00000        3.80000     2666.00000        8.00000        3.36000
     3638.54880     3467.60000        3.70000       21.08000       32.31000       30.08000       32.33000       25.30000       65.90000        3.40000      238.44000      165.00000      323.00000        4.06000     2707.00000       23.00000        3.95000
     3638.70120     3467.61000        3.50000       22.26000       33.60000       31.03000       32.95000       25.46000       65.90000        3.39000      239.66000      167.00000      328.00000        4.60000     2738.00000       38.00000        3.78000
     3638.85360     3467.63000        3.50000       23.93000       37.14000       34.95000       39.19000       28.31000       65.90000        3.38000      235.31000      168.00000      329.00000        5.19000     2696.00000       35.00000        3.99000
     3639.00600     3467.64000        3.40000       24.21000       35.29000       34.46000       35.66000       25.54000       65.90000        3.38000      237.56000      170.00000      322.00000        5.28000     2686.00000       46.00000        4.00000
