~VERSION
 VERS.        2.0                                          :CWLS LOG ASCII STANDARD - VERSION 2.0
 WRAP.        NO                                           :ONE LINE PER DEPTH STEP
~WELL
#       MNEM.UNIT                DATA                    DESCRIPTION OF MNEMONIC
#----------------------    ----------------              -----------------------
 STRT.M       3210.00000                                                                                     :START DEPTH
 STOP.M       3934.66200                                                                                     :STOP DEPTH
 STEP.M       0.15240                                                                                        :STEP DEPTH
 NULL.        -999.25000                                                                                     :NULL VALUE
 COMP.        PanCanadian Petroleum Limited                                                                  :COMPANY NAME
 WELL.        Panuke M-79A                                                                                   :WELL NAME
  FLD.        Panuke                                                                                         :FIELD NAME
  LOC.        Panuke                                                                                         :LOCATION / LEASE
 PROV.        Nova Scotia                                                                                    :PROVINCE
 CTRY.        CANADA                                                                                         :COUNTRY
 SRVC.        SPERRY-SUN DRILLING SERVICES                                                                   :SERVICE COMPANY
 DATE.        29-Oct-2000                                                                                    :DATE
  UWI.        300M794350060301                                                                               :UNIQUE WELL ID
 LATI.DEG     43 48' 32.10" N                                                                                :LATITUDE
 LONG.DEG     60 41' 59.81" W                                                                                :LONGITUDE
~CURVE
#MNEM.UNIT    VALUE                                        :DESCRIPTION
#----.----    ---------------                              :-------------------
 DEPT.M       00 001 00 00                                 :Depth Index
  TVD.M                                                    :TVD C=LAST G=1M
 SROP.M/HR                                                 :RATE OF PENETRATION C=SMOOTHED@0.5M G=1M
 SGRC.API                                                  :GAMMA RAY C=SMOOTHED@0.5M G=1M
 SEDP.OHMM                                                 :DEEP EWR PHASE RES  C=MEAN G=1M
 SEMP.OHMM                                                 :MEDIUM EWR PHASE RES  C=MEAN G=1M
 SESP.OHMM                                                 :SHALLOW EWR PHASE RES  C=MEAN G=1M
 SEXP.OHMM                                                 :EXT SHALLOW EWR PHASE RES  C=MEAN G=1M
 TEMP.DEGC                                                 :TEMPERATURE C=LAST G=1M
 SFXE.HR                                                   :FORM EXPOS TIME C=SMOOTHED@0.15M G=1M
 ACCC.MM                                                   :CORR CALIPER C=SMOOTHED@0.15M G=1M
 DTCQ.US/M                                                 :COMPRESSIONAL SLOWNESS C=SMOOTHED@0.15M G=1M
 DTSQ.US/M                                                 :SHEAR SLOWNESS C=SMOOTHED@0.15M G=1M
 SPLF.PU                                                   :NEUTRON POROSITY C=SMOOTHED@.2M G=1M
 SBD2.KPM                                                  :BULK DENSITY C=SMOOTHED@.2M G=1M
 SCO2.KPM                                                  :STANDOFF CORRECTION C=SMOOTHED@.2M G=1M
 SNPE.B/E                                                  :PHOTO ELECTRIC C=SMOOTHED@.2M G=1M
~PARAMETER
#MNEM.UNIT    VALUE                                        :DESCRIPTION
#----.----    ---------------                              :-------------------
 PDAT.        MEAN SEA LEVEL                               :PERMANENT DATUM
  EPD.M       0.000000                                     :ELEVATION OF PERMANENT DATUM ABOVE MEAN SEA LEVEL
  LMF.        DRILL FLOOR                                  :LOGGING MEASURED FROM (NAME OF LOGGING ELEVATION REFERENCE)
  APD.M       47.020000                                    :ELEVATION OF DEPTH REFERENCE (LMF) ABOVE PERMANENT DATUM
~OTHER
#SPERRY-SUN DRILLING SERVICES WILL USE ITS BEST EFFORTS TO FURNISH CUSTOMERS
# WITH ACCURATE INFORMATION AND INTERPRETATIONS THAT ARE PART OF, AND INCIDENT
# TO, THE SERVICES PROVIDED.  HOWEVER, SPERRY-SUN DRILLING SERVICES CANNOT AND
# DOES NOT WARRANT THE ACCURACY OR CORRECTNESS OF SUCH INFORMATION AND
# INTERPRETATIONS.  UNDER NO CIRCUMSTANCES SHOULD ANY SUCH INFORMATION OR
# INTERPRETATION BE RELIED UPON AS THE SOLE BASIS FOR ANY DRILLING, COMPLETION,
# PRODUCTION, OR FINANCIAL DECISION OR ANY PROCEDURE INVOLVING ANY RISK TO THE
# SAFETY OF ANY DRILLING VENTURE, DRILLING RIG OR ITS CREW OR ANY THIRD PARTY.
# THE CUSTOMER HAS FULL RESPONSIBILITY FOR ALL DRILLING, COMPLETION, AND
# PRODUCTION OPERATION.  SPERRY-SUN DRILLING SERVICES MAKES NO REPRESENTATIONS
# OR WARRANTIES, EITHER EXPRESSED OR IMPLIED, INCLUDING, BUT NOT LIMITED TO,
# THE IMPLIED WARRANTIES OF MERCHANTABILITY OR FITNESS FOR A PARTICULAR PURPOSE,
# WITH RESPECT TO THE SERVICES RENDERED.  IN NO EVENT WILL SPERRY-SUN DRILLING
# SERVICES BE LIABLE FOR FAILURE TO OBTAIN ANY PARTICULAR RESULTS OR FOR ANY
# DAMAGES, INCLUDING, BUT NOT LIMITED TO, INDIRECT, SPECIAL OR CONSEQUENTIAL
# DAMAGES, RESULTING FROM THE USE OF ANY INFORMATION OR INTERPRETATION PROVIDED
# BY SPERRY-SUN DRILLING SERVICES.
~ASCII     DEPT            TVD           SROP           SGRC           SEDP           SEMP           SESP           SEXP           TEMP           SFXE           ACCC           DTCQ           DTSQ           SPLF           SBD2           SCO2           SNPE
# ...
     3400.19520     3373.52000        3.80000     -999.25000       93.23000       79.54000       76.62000       37.25000       67.10000        5.01000     -999.25000     -999.25000     -999.25000     -999.25000     -999.25000     -999.25000     -999.25000
     3400.34760     3373.66000        4.20000     -999.25000       74.13000       59.82000       49.41000       27.28000       67.10000        5.01000     -999.25000     -999.25000     -999.25000     -999.25000     -999.25000     -999.25000     -999.25000
     3400.50000     3373.73000        3.80000     -999.25000       75.45000       61.90000       50.62000       27.15000       67.10000        5.01000     -999.25000     -999.25000     -999.25000     -999.25000     -999.25000     -999.25000     -999.25000
     3400.65240     3373.87000        3.90000     -999.25000       82.46000       70.00000       60.96000       29.13000       67.10000        5.10000     -999.25000     -999.25000     -999.25000     -999.25000     -999.25000     -999.25000     -999.25000
     3400.80480     3373.94000        4.10000     -999.25000       88.15000       76.01000       70.08000       31.24000       67.10000        5.20000     -999.25000     -999.25000     -999.25000     -999.25000     -999.25000     -999.25000     -999.25000
     3400.95720     3374.06000        4.00000     -999.25000       93.09000       79.30000       70.88000       37.78000       67.10000        5.21000     -999.25000     -999.25000     -999.25000     -999.25000     -999.25000     -999.25000     -999.25000
     3401.10960     3374.14000        4.10000     -999.25000       81.86000       67.35000       62.54000       34.45000       67.10000        5.22000     -999.25000     -999.25000     -999.25000     -999.25000     -999.25000     -999.25000     -999.25000
     3401.26200     3374.28000        4.50000     -999.25000       64.38000       51.61000       51.20000       31.05000       67.10000        5.24000     -999.25000     -999.25000     -999.25000     -999.25000     -999.25000     -999.25000     -999.25000
     3401.41440     3374.35000        3.90000     -999.25000       58.13000       47.83000       48.20000       30.99000       67.10000        5.26000     -999.25000     -999.25000     -999.25000     -999.25000     -999.25000     -999.25000     -999.25000
     3401.56680     3374.49000        3.40000     -999.25000       48.82000       38.55000       37.29000       23.29000       67.10000        5.26000     -999.25000     -999.25000     -999.25000     -999.25000     -999.25000     -999.25000     -999.25000
     3401.71920     3374.54000        3.40000     -999.25000       51.33000       40.75000       39.85000       24.43000       67.10000        5.25000     -999.25000     -999.25000     -999.25000     -999.25000     -999.25000     -999.25000     -999.25000
     3401.87160     3374.68000        3.80000     -999.25000       49.55000       38.67000       38.44000       22.80000       67.10000        5.27000     -999.25000     -999.25000     -999.25000     -999.25000     -999.25000     -999.25000     -999.25000
     3402.02400     3374.82000        3.40000     -999.25000       57.70000       47.41000       49.56000       28.34000       67.10000        5.27000     -999.25000     -999.25000     -999.25000     -999.25000     -999.25000     -999.25000     -999.25000
     3402.17640     3374.88000        3.20000     -999.25000       53.90000       42.09000       43.32000       28.10000       67.10000        5.25000     -999.25000      181.00000      338.00000     -999.25000     -999.25000     -999.25000     -999.25000
     3402.32880     3375.02000        3.10000     -999.25000       48.06000       37.42000       37.22000       26.85000       67.10000        5.07000     -999.25000      177.00000      339.00000     -999.25000     -999.25000     -999.25000     -999.25000
     3402.48120     3375.10000        4.10000     -999.25000       44.91000       34.48000       36.51000       26.18000       67.10000        5.01000     -999.25000      178.00000      343.00000     -999.25000     -999.25000     -999.25000     -999.25000
     3402.63360     3375.22000        6.30000     -999.25000       43.29000       34.69000       31.09000       23.02000       67.10000        5.01000     -999.25000      183.00000      343.00000     -999.25000     -999.25000     -999.25000     -999.25000
     3402.78600     3375.30000        5.50000     -999.25000       41.75000       32.40000       29.59000       22.32000       67.10000        5.01000     -999.25000      184.00000      347.00000     -999.25000     -999.25000     -999.25000     -999.25000
     3402.93840     3375.43000        5.60000     -999.25000       38.08000       28.41000       26.80000       20.73000       66.50000        5.01000     -999.25000      180.00000      345.00000     -999.25000     -999.25000     -999.25000     -999.25000
     3403.09080     3375.49000        5.60000     -999.25000       38.59000       28.91000       26.96000       20.80000       66.50000        5.04000     -999.25000      183.00000      354.00000     -999.25000     -999.25000     -999.25000     -999.25000
     3403.24320     3375.64000        4.80000     -999.25000       42.61000       32.28000       32.08000       23.68000       65.90000        5.11000     -999.25000      183.00000      352.00000     -999.25000     -999.25000     -999.25000     -999.25000
     3403.39560     3375.71000        4.70000     -999.25000       46.12000       35.14000       37.05000       26.49000       66.50000        5.14000     -999.25000      184.00000      354.00000     -999.25000     -999.25000     -999.25000     -999.25000
     3403.54800     3375.85000        5.40000     -999.25000       43.34000       33.51000       33.56000       25.63000       66.50000        5.17000     -999.25000      192.00000      352.00000     -999.25000     -999.25000     -999.25000     -999.25000
     3403.70040     3375.91000        4.50000     -999.25000       44.06000       34.97000       35.22000       26.10000       66.50000        5.18000     -999.25000      187.00000      350.00000     -999.25000     -999.25000     -999.25000     -999.25000
     3403.85280     3376.05000        4.30000     -999.25000       43.97000       34.32000       36.43000       28.98000       66.50000        5.18000     -999.25000      186.00000      345.00000     -999.25000     -999.25000     -999.25000     -999.25000
     3404.00520     3376.12000        3.40000     -999.25000       40.96000       30.60000       30.30000       25.00000       66.50000        5.19000     -999.25000      189.00000      338.00000     -999.25000     -999.25000     -999.25000     -999.25000
     3404.15760     3376.26000        2.50000     -999.25000       31.25000       22.38000       20.61000       15.47000       66.50000        5.03000     -999.25000      182.00000      336.00000     -999.25000     -999.25000     -999.25000     -999.25000
     3404.31000     3376.32000        2.70000     -999.25000       31.45000       22.95000       20.12000       15.97000       66.50000        4.93000     -999.25000      181.00000      334.00000     -999.25000     -999.25000     -999.25000     -999.25000
     3404.46240     3376.46000        2.90000     -999.25000       39.02000       28.96000       24.21000       17.89000       66.50000        4.93000     -999.25000      186.00000      343.00000     -999.25000     -999.25000     -999.25000     -999.25000
     3404.61480     3376.53000        2.30000     -999.25000       47.00000       35.32000       34.67000       22.82000       67.10000        4.94000     -999.25000      191.00000      340.00000     -999.25000     -999.25000     -999.25000     -999.25000
     3404.76720     3376.66000        2.90000     -999.25000       59.96000       51.17000       58.07000       33.08000       67.10000        4.88000     -999.25000      184.00000      342.00000     -999.25000     -999.25000     -999.25000     -999.25000
     3404.91960     3376.73000        3.60000     -999.25000       53.04000       46.22000       47.81000       29.54000       67.10000        4.84000     -999.25000      189.00000      338.00000     -999.25000     -999.25000     -999.25000     -999.25000
