~VERSION
 VERS.        2.0                                          :CWLS Log ASCII Standard - VERSION 2.0
 WRAP.        NO                                           :One Line per depth step
 CREA.        20001106 21.27                               :LAS Creation date <yyyymmdd hh.mm>
#--------------------------------------------------
~WELL
#MNEM.UNIT      DATA             DESCRIPTION
#---- ------ --------------   -----------------------------
 STRT.M       3055.46760                                                                                     :START DEPTH
 STOP.M       3510.83880                                                                                     :STOP DEPTH
 STEP.M       0.15240                                                                                        :STEP
 NULL.        -999.25000                                                                                     :NULL VALUE
 COMP.        PANCANADIAN PETROLEUM LTD.                                                                     :COMPANY
 WELL.        PANCANADIAN PANUKE M-79                                                                        :WELL
  FLD.        PANUKE                                                                                         :FIELD
  LOC.        LAT 43 48' 32.10" N (NAD 27)                                                                   :LOCATION
 PROV.        NOVA SCOTIA                                                                                    :PROVINCE
 CTRY.        CANADA                                                                                         :COUNTRY
 SRVC.        Schlumberger                                                                                   :SERVICE COMPANY
 DATE.        06-Nov-2000                                                                                    :LOG DATE
  UWI.        300M794350060301                                                                               :UNIQUE WELL ID
 LATI.DEG     43 48' 32.10" N                                                                                :LATITUDE
 LONG.DEG     60 41' 59.81" W                                                                                :LONGITUDE
#--------------------------------------------------
~CURVE
#MNEM.UNIT    VALUE                                        :DESCRIPTION
#----.----    ---------------                              :-------------------
 DEPT.M       00 001 00 00                                 :Depth Index
   CS.F/HR                                                 :CABLE SPEED
 TENS.LBF                                                  :CABLE TENSION
 HTHO.PPM                                                  :HNGS FORMATION THORIUM CONCENTRATION
 HURA.PPM                                                  :HNGS FORMATION URANIUM CONCENTRATION
  HFK.                                                     :HNGS FORMATION POTASSIUM CONCENTRATION
 HSGR.GAPI                                                 :HNGS STANDARD GAMMA RAY
 HCGR.GAPI                                                 :HNGS COMPUTED GAMMA RAY
 HTPR.                                                     :HNGS THORIUM/POTASSIUM RATIO
 HTUR.                                                     :HNGS THORIUM/URANIUM RATIO
 HUPR.                                                     :HNGS URANIUM/POTASSIUM RATIO
 S2TM.DEGC                                                 :HNGS DETECTOR 2 TEMPERATURE
   DF.LBF                                                  :UNCALIBRATED DOWNHOLE FORCE
~PARAMETER
#MNEM.UNIT    VALUE                                        :DESCRIPTION
#----.----    ---------------                              :-------------------
 PDAT.        MEAN SEA LEVEL                               :PERMANENT DATUM
  EPD.M       0.000000                                     :ELEVATION OF PERMANENT DATUM ABOVE MEAN SEA LEVEL
  LMF.        DRILL FLOOR                                  :LOGGING MEASURED FROM (NAME OF LOGGING ELEVATION REFERENCE)
  APD.M       47.020000                                    :ELEVATION OF DEPTH REFERENCE (LMF) ABOVE PERMANENT DATUM
~A        DEPTH             CS           TENS           HTHO           HURA            HFK           HSGR           HCGR           HTPR           HTUR           HUPR           S2TM             DF
# ...
     3474.11040     2060.69900     4981.00000        1.60200        0.78500        0.00200       13.62900        9.02700        6.57100        2.04100        3.22000       15.22900      604.70500
     3474.26280     2064.03400     4818.00000        1.66500        0.75000        0.00200       12.76800        8.33800        8.53500        2.22100        3.84300       15.28700      616.43700
     3474.41520     2062.30700     5015.00000        1.67100        0.87200        0.00200       13.39700        8.39300        8.46700        1.91600        4.42000       15.34600      622.48000
     3474.56760     2060.16200     5304.00000        1.65700        0.81900        0.00200       13.24600        8.44200        8.19900        2.02300        4.05200       15.34600      621.05800
     3474.72000     2063.42000     5104.00000        1.81000        0.61000        0.00200       12.76500        8.98500        8.71100        2.96700        2.93600       15.28500      612.52600
     3474.87240     2061.60500     4844.00000        1.50100        0.57700        0.00200       11.71100        7.84200        7.73300        2.60100        2.97300       15.28700      601.86100
     3475.02480     2065.07000     4931.00000        1.32800        0.58400        0.00200       10.66200        6.89100        7.86100        2.27500        3.45500       15.34600      601.86100
     3475.17720     2063.32000     5052.00000        1.46700        0.64300        0.00200       11.75800        7.37300        8.45800        2.28000        3.70900       15.40400      608.26000
     3475.32960     2067.19500     4951.00000        1.34900        0.83100        0.00200       12.68400        7.09900        7.60900        1.62400        4.68700       15.40400      618.92500
     3475.48200     2065.74800     4939.00000        1.32300        0.92400        0.00200       13.23200        6.76900        8.11600        1.43100        5.66900       15.28700      611.81600
     3475.63440     2064.26500     5066.00000        1.44900        0.96900        0.00100       13.56300        6.84000        9.88300        1.49500        6.61000       15.40400      607.19400
     3475.78680     2062.57100     4994.00000        1.32600        0.95200        0.00200       13.48200        7.07400        7.38500        1.39300        5.30200       15.28700      598.30600
     3475.93920     2060.29200     5035.00000        1.15200        0.97500        0.00200       13.38700        6.86800        5.86700        1.18200        4.96500       15.34600      605.41600
     3476.09160     2060.91000     4957.00000        1.20600        1.13800        0.00200       15.23200        7.39000        5.56300        1.05900        5.25000       15.28700      612.52600
     3476.24400     2061.44800     4847.00000        1.11600        1.34200        0.00200       16.67600        7.13300        5.14700        0.83200        6.18900       15.34600      615.37000
     3476.39640     2059.52300     5034.00000        0.79400        1.58800        0.00200       17.62500        6.31400        3.55500        0.50000        7.11000       15.22600      613.94900
     3476.54880     2059.86300     4875.00000        0.86900        1.47700        0.00200       15.96800        5.72300        4.87500        0.58800        8.28500       15.28700      610.03800
     3476.70120     2060.25100     4855.00000        0.79400        1.25900        0.00200       15.11800        5.96400        3.89100        0.63000        6.17200       15.40400      597.59500
     3476.85360     2063.52300     4973.00000        0.99900        1.15200        0.00200       15.76600        7.29500        4.07900        0.86700        4.70400       15.28700      607.90500
     3477.00600     2061.72200     4847.00000        0.95600        1.00300        0.00300       14.86800        7.48800        3.64100        0.95300        3.82000       15.34600      609.32700
     3477.15840     2059.66500     4999.00000        0.91700        0.89600        0.00300       14.26800        7.82900        3.18500        1.02400        3.11000       15.34300      614.30400
     3477.31080     2062.85300     4916.00000        0.60100        0.95500        0.00300       13.22700        6.48300        2.27700        0.63000        3.61600       15.34300      615.01500
     3477.46320     2063.66800     4941.00000        0.53100        1.20800        0.00300       14.92700        6.52400        1.91200        0.44000        4.34800       15.28700      608.97100
     3477.61560     2064.60100     4881.00000        0.81400        1.10400        0.00300       15.01700        7.50800        2.83900        0.73800        3.84900       15.28200      601.86100
     3477.76800     2062.95400     4927.00000        0.80700        1.00400        0.00300       13.64800        6.94200        3.15000        0.80400        3.91800       15.28500      601.86100
     3477.92040     2061.07300     4944.00000        0.77700        0.80800        0.00200       11.00400        5.95700        3.76800        0.96200        3.91500       15.28200      603.28300
     3478.07280     2064.46200     5093.00000        0.75200        0.79600        0.00200       10.82800        5.96500        3.57100        0.94500        3.78000       15.28500      615.37000
     3478.22520     2062.62500     4937.00000        0.84300        0.80000        0.00300       12.16400        7.00000        3.32300        1.05300        3.15500       15.22600      611.81600
     3478.37760     2060.69600     4954.00000        1.06400        1.05900        0.00200       13.80600        7.12700        4.72900        1.00500        4.70600       15.34600      604.70500
     3478.53000     2058.49200     4951.00000        1.07600        1.11400        0.00200       14.02200        6.77400        5.29300        0.96600        5.47800       15.34600      605.41600
     3478.68240     2055.80200     5011.00000        1.09200        1.05100        0.00200       13.74700        6.94100        5.19600        1.03800        5.00300       15.17000      606.83800
     3478.83480     2058.43700     4859.00000        0.84400        1.06300        0.00200       13.19500        6.15500        4.09000        0.79500        5.14800       15.28700      610.39300
     3478.98720     2058.79000     5138.00000        0.77500        1.06200        0.00200       12.89700        5.73600        3.98800        0.72900        5.46700       15.34600      608.26000
     3479.13960     2059.02500     4986.00000        1.09900        0.92800        0.00200       13.55600        6.87300        5.35400        1.18400        4.52100       15.22900      605.77200
     3479.29200     2062.12200     5066.00000        1.51700        0.98100        0.00200       15.84200        8.43300        6.75800        1.54600        4.37200       15.40400      599.37300
     3479.44440     2060.12100     4850.00000        1.72100        1.00900        0.00300       18.29200       10.74000        5.38000        1.70500        3.15500       15.34600      604.70500
     3479.59680     2060.71400     5096.00000        1.74600        1.23300        0.00400       20.98500       11.91500        4.57500        1.41600        3.23100       15.28500      600.08400
     3479.74920     2061.05600     4806.00000        1.80200        1.21400        0.00400       20.71400       11.81800        4.91000        1.48500        3.30700       15.34600      610.03800
     3479.90160     2064.44300     4994.00000        1.57400        1.24200        0.00400       19.56400       10.88900        4.46900        1.26700        3.52700       15.28700      603.28300
     3480.05400     2062.77400     4979.00000        1.50100        1.20200        0.00300       18.89400       10.35800        4.48800        1.24800        3.59600       15.34600      602.21700
     3480.20640     2066.40600     4890.00000        1.67800        1.21600        0.00300       19.39400       11.09000        4.84500        1.38100        3.50900       15.28700      596.52900
