~VERSION
 VERS.        2.0                                          :CWLS LOG ASCII STANDARD - VERSION 2.0
 WRAP.        NO                                           :ONE LINE PER DEPTH STEP
~WELL
#       MNEM.UNIT                DATA                    DESCRIPTION OF MNEMONIC
#----------------------    ----------------              -----------------------
 STRT.M       3210.00000                                                                                     :START DEPTH
 STOP.M       3934.66200                                                                                     :STOP DEPTH
 STEP.M       0.15240                                                                                        :STEP DEPTH
 NULL.        -999.25000                                                                                     :NULL VALUE
 COMP.        PanCanadian Petroleum Limited                                                                  :COMPANY NAME
 WELL.        Panuke M-79A                                                                                   :WELL NAME
  FLD.        Panuke                                                                                         :FIELD NAME
  LOC.        Panuke                                                                                         :LOCATION / LEASE
 PROV.        Nova Scotia                                                                                    :PROVINCE
 CTRY.        CANADA                                                                                         :COUNTRY
 SRVC.        SPERRY-SUN DRILLING SERVICES                                                                   :SERVICE COMPANY
 DATE.        29-Oct-2000                                                                                    :DATE
  UWI.        300M794350060301                                                                               :UNIQUE WELL ID
 LATI.DEG     43 48' 32.10" N                                                                                :LATITUDE
 LONG.DEG     60 41' 59.81" W                                                                                :LONGITUDE
~CURVE
#MNEM.UNIT    VALUE                                        :DESCRIPTION
#----.----    ---------------                              :-------------------
 DEPT.M       00 001 00 00                                 :Depth Index
  TVD.M                                                    :TVD C=LAST G=1M
 SROP.M/HR                                                 :RATE OF PENETRATION C=SMOOTHED@0.5M G=1M
 SGRC.API                                                  :GAMMA RAY C=SMOOTHED@0.5M G=1M
 SEDP.OHMM                                                 :DEEP EWR PHASE RES  C=MEAN G=1M
 SEMP.OHMM                                                 :MEDIUM EWR PHASE RES  C=MEAN G=1M
 SESP.OHMM                                                 :SHALLOW EWR PHASE RES  C=MEAN G=1M
 SEXP.OHMM                                                 :EXT SHALLOW EWR PHASE RES  C=MEAN G=1M
 TEMP.DEGC                                                 :TEMPERATURE C=LAST G=1M
 SFXE.HR                                                   :FORM EXPOS TIME C=SMOOTHED@0.15M G=1M
 ACCC.MM                                                   :CORR CALIPER C=SMOOTHED@0.15M G=1M
 DTCQ.US/M                                                 :COMPRESSIONAL SLOWNESS C=SMOOTHED@0.15M G=1M
 DTSQ.US/M                                                 :SHEAR SLOWNESS C=SMOOTHED@0.15M G=1M
 SPLF.PU                                                   :NEUTRON POROSITY C=SMOOTHED@.2M G=1M
 SBD2.KPM                                                  :BULK DENSITY C=SMOOTHED@.2M G=1M
 SCO2.KPM                                                  :STANDOFF CORRECTION C=SMOOTHED@.2M G=1M
 SNPE.B/E                                                  :PHOTO ELECTRIC C=SMOOTHED@.2M G=1M
~PARAMETER
#MNEM.UNIT    VALUE                                        :DESCRIPTION
#----.----    ---------------                              :-------------------
 PDAT.        MEAN SEA LEVEL                               :PERMANENT DATUM
  EPD.M       0.000000                                     :ELEVATION OF PERMANENT DATUM ABOVE MEAN SEA LEVEL
  LMF.        DRILL FLOOR                                  :LOGGING MEASURED FROM (NAME OF LOGGING ELEVATION REFERENCE)
  APD.M       47.020000                                    :ELEVATION OF DEPTH REFERENCE (LMF) ABOVE PERMANENT DATUM
~OTHER
#SPERRY-SUN DRILLING SERVICES WILL USE ITS BEST EFFORTS TO FURNISH CUSTOMERS
# WITH ACCURATE INFORMATION AND INTERPRETATIONS THAT ARE PART OF, AND INCIDENT
# TO, THE SERVICES PROVIDED.  HOWEVER, SPERRY-SUN DRILLING SERVICES CANNOT AND
# DOES NOT WARRANT THE ACCURACY OR CORRECTNESS OF SUCH INFORMATION AND
# INTERPRETATIONS.  UNDER NO CIRCUMSTANCES SHOULD ANY SUCH INFORMATION OR
# INTERPRETATION BE RELIED UPON AS THE SOLE BASIS FOR ANY DRILLING, COMPLETION,
# PRODUCTION, OR FINANCIAL DECISION OR ANY PROCEDURE INVOLVING ANY RISK TO THE
# SAFETY OF ANY DRILLING VENTURE, DRILLING RIG OR ITS CREW OR ANY THIRD PARTY.
# THE CUSTOMER HAS FULL RESPONSIBILITY FOR ALL DRILLING, COMPLETION, AND
# PRODUCTION OPERATION.  SPERRY-SUN DRILLING SERVICES MAKES NO REPRESENTATIONS
# OR WARRANTIES, EITHER EXPRESSED OR IMPLIED, INCLUDING, BUT NOT LIMITED TO,
# THE IMPLIED WARRANTIES OF MERCHANTABILITY OR FITNESS FOR A PARTICULAR PURPOSE,
# WITH RESPECT TO THE SERVICES RENDERED.  IN NO EVENT WILL SPERRY-SUN DRILLING
# SERVICES BE LIABLE FOR FAILURE TO OBTAIN ANY PARTICULAR RESULTS OR FOR ANY
# DAMAGES, INCLUDING, BUT NOT LIMITED TO, INDIRECT, SPECIAL OR CONSEQUENTIAL
# DAMAGES, RESULTING FROM THE USE OF ANY INFORMATION OR INTERPRETATION PROVIDED
# BY SPERRY-SUN DRILLING SERVICES.
~ASCII     DEPT            TVD           SROP           SGRC           SEDP           SEMP           SESP           SEXP           TEMP           SFXE           ACCC           DTCQ           DTSQ           SPLF           SBD2           SCO2           SNPE
# ...
     3731.81760     3475.34000        4.50000       21.22000      464.84000      469.05000      344.62000       66.05000       72.60000        3.79000      239.64000      164.00000      308.00000        5.39000     2701.00000      170.00000        4.08000
     3731.97000     3475.36000        4.10000       22.48000      201.38000      178.93000      141.12000       35.82000       72.60000        3.77000      240.89000      164.00000      310.00000        6.05000     2667.00000      142.00000        3.99000
     3732.12240     3475.37000        3.80000       23.27000      169.49000      135.42000       96.06000       31.32000       72.60000        3.78000      239.00000      167.00000      303.00000        6.04000     2641.00000      100.00000        4.11000
     3732.27480     3475.39000        3.50000       23.24000     1311.96000     2000.00000      566.40000       41.93000       72.60000        3.72000      236.82000      167.00000      308.00000        6.30000     2719.00000      141.00000        4.53000
     3732.42720     3475.40000        5.30000       22.46000     2000.00000     2000.00000     2000.00000      164.87000       72.60000        3.42000      234.17000      166.00000      307.00000        7.47000     2791.00000      175.00000        4.05000
     3732.57960     3475.41000        6.00000       21.96000     2000.00000     2000.00000     2000.00000      112.10000       72.60000        3.28000      231.68000      167.00000      305.00000        7.46000     2744.00000      135.00000        4.11000
     3732.73200     3475.42000        5.10000       21.23000     1649.65000     2000.00000     2000.00000      137.24000       72.60000        3.27000      235.12000      164.00000      310.00000        6.93000     2662.00000       64.00000        4.49000
     3732.88440     3475.43000        5.10000       20.68000      246.23000      177.76000      129.91000       40.20000       72.60000        3.27000      235.21000      164.00000      312.00000        7.06000     2692.00000       80.00000        4.68000
     3733.03680     3475.45000        5.30000       19.52000      112.21000      107.07000       47.04000       26.20000       72.60000        3.26000      235.39000      167.00000      314.00000        7.34000     2750.00000      146.00000        4.80000
     3733.18920     3475.46000        4.80000       19.75000      182.20000      134.31000       73.96000       30.19000       72.60000        3.25000      237.08000      167.00000      312.00000        7.65000     2797.00000      247.00000        4.11000
     3733.34160     3475.47000        3.80000       19.55000      206.75000      133.93000       96.73000       30.21000       72.60000        3.22000      240.45000      159.00000      317.00000        9.63000     2572.00000      162.00000        4.21000
     3733.49400     3475.48000        4.00000       18.48000      285.05000      100.83000       65.90000       25.16000       72.60000        3.21000      242.14000      161.00000      315.00000       10.83000     2728.00000      378.00000        3.86000
     3733.64640     3475.50000        4.20000       17.22000      166.13000      189.70000       68.31000       23.57000       72.60000        3.17000      245.25000      168.00000      314.00000       11.29000     2662.00000      301.00000        3.43000
     3733.79880     3475.50000        4.00000       17.55000      198.77000      194.91000       81.51000       23.91000       72.60000        3.16000      239.33000      171.00000      312.00000       10.58000     2539.00000      133.00000        3.62000
     3733.95120     3475.52000        3.90000       20.43000      661.62000      527.98000      152.77000       24.42000       72.60000        3.13000      238.91000      171.00000      312.00000        8.87000     2538.00000       -4.00000        4.48000
     3734.10360     3475.53000        3.60000       20.53000     2000.00000     2000.00000     2000.00000       61.89000       72.60000        3.10000      238.49000      171.00000      315.00000        8.52000     2476.00000      -42.00000        4.27000
     3734.25600     3475.55000        3.70000       19.18000      463.09000      392.04000      249.44000       35.30000       72.60000        3.06000      238.07000      163.00000      318.00000        8.16000     2480.00000       51.00000        3.74000
     3734.40840     3475.55000        3.80000       18.33000      439.07000      378.33000      171.11000       31.89000       72.60000        3.03000      238.07000      161.00000      318.00000        7.78000     2492.00000       30.00000        3.54000
     3734.56080     3475.57000        3.80000       15.87000     2000.00000     2000.00000     2000.00000       49.61000       73.20000        3.14000      238.73000      165.00000      315.00000        6.52000     2653.00000        3.00000        3.37000
     3734.71320     3475.58000        3.70000       14.94000      479.92000      351.62000      204.02000       34.23000       73.20000        3.15000      238.73000      167.00000      315.00000        6.48000     2658.00000        1.00000        3.80000
     3734.86560     3475.59000        4.60000       13.99000      355.00000      419.01000      144.59000       30.73000       73.20000        3.02000      223.60000      164.00000      312.00000        6.39000     2670.00000       -3.00000        3.75000
     3735.01800     3475.60000        4.40000       14.36000     1124.22000     2000.00000      638.50000       40.70000       73.20000        2.99000      223.88000      161.00000      315.00000        6.27000     2684.00000        0.00000        4.07000
     3735.17040     3475.62000        4.40000       15.54000     2000.00000     2000.00000     2000.00000       45.56000       73.20000        2.92000      231.59000      157.00000      314.00000        5.80000     2661.00000       -3.00000        4.45000
     3735.32280     3475.63000        3.90000       16.03000     2000.00000     2000.00000     2000.00000       51.47000       73.20000        2.89000      235.04000      155.00000      309.00000        5.22000     2646.00000       -4.00000        4.23000
     3735.47520     3475.64000        3.70000       17.20000     2000.00000     2000.00000     2000.00000      174.31000       73.20000        2.84000      229.73000      162.00000      316.00000        4.43000     2615.00000      -14.00000        4.45000
     3735.62760     3475.66000        3.70000       17.75000      389.57000      508.27000      155.18000       54.35000       73.20000        2.81000      233.14000      171.00000      322.00000        3.70000     2703.00000       43.00000        4.42000
     3735.78000     3475.67000        4.00000       16.86000      317.43000      356.25000      125.36000       43.18000       73.90000        2.79000      233.14000      171.00000      322.00000        3.56000     2766.00000       62.00000        4.25000
     3735.93240     3475.68000        3.30000       16.14000      308.55000      199.03000       94.56000       37.16000       73.20000        2.75000      234.37000      168.00000      327.00000        3.72000     2748.00000       56.00000        3.66000
     3736.08480     3475.69000        2.80000       16.88000      357.02000      250.27000      124.97000       35.29000       73.20000        2.71000      237.54000      164.00000      324.00000        4.10000     2714.00000       55.00000        3.51000
     3736.23720     3475.71000        3.50000       16.43000      558.84000      751.83000      212.53000       44.31000       73.20000        2.68000      240.18000      165.00000      318.00000        4.58000     2667.00000       55.00000        3.91000
     3736.38960     3475.72000        3.80000       15.14000     1136.37000     2000.00000     1078.88000       50.76000       73.20000        2.66000      240.36000      167.00000      317.00000        4.56000     2676.00000       51.00000        4.02000
     3736.54200     3475.73000        4.20000       13.28000     2000.00000     2000.00000     2000.00000       51.43000       73.20000        2.61000      237.71000      158.00000      302.00000        4.72000     2674.00000        9.00000        4.03000
