~VERSION
 VERS.        2.0                                          :CWLS LOG ASCII STANDARD - VERSION 2.0
 WRAP.        NO                                           :ONE LINE PER DEPTH STEP
~WELL
#       MNEM.UNIT                DATA                    DESCRIPTION OF MNEMONIC
#----------------------    ----------------              -----------------------
 STRT.M       3210.00000                                                                                     :START DEPTH
 STOP.M       3934.66200                                                                                     :STOP DEPTH
 STEP.M       0.15240                                                                                        :STEP DEPTH
 NULL.        -999.25000                                                                                     :NULL VALUE
 COMP.        PanCanadian Petroleum Limited                                                                  :COMPANY NAME
 WELL.        Panuke M-79A                                                                                   :WELL NAME
  FLD.        Panuke                                                                                         :FIELD NAME
  LOC.        Panuke                                                                                         :LOCATION / LEASE
 PROV.        Nova Scotia                                                                                    :PROVINCE
 CTRY.        CANADA                                                                                         :COUNTRY
 SRVC.        SPERRY-SUN DRILLING SERVICES                                                                   :SERVICE COMPANY
 DATE.        29-Oct-2000                                                                                    :DATE
  UWI.        300M794350060301                                                                               :UNIQUE WELL ID
 LATI.DEG     43 48' 32.10" N                                                                                :LATITUDE
 LONG.DEG     60 41' 59.81" W                                                                                :LONGITUDE
~CURVE
#MNEM.UNIT    VALUE                                        :DESCRIPTION
#----.----    ---------------                              :-------------------
 DEPT.M       00 001 00 00                                 :Depth Index
  TVD.M                                                    :TVD C=LAST G=1M
 SROP.M/HR                                                 :RATE OF PENETRATION C=SMOOTHED@0.5M G=1M
 SGRC.API                                                  :GAMMA RAY C=SMOOTHED@0.5M G=1M
 SEDP.OHMM                                                 :DEEP EWR PHASE RES  C=MEAN G=1M
 SEMP.OHMM                                                 :MEDIUM EWR PHASE RES  C=MEAN G=1M
 SESP.OHMM                                                 :SHALLOW EWR PHASE RES  C=MEAN G=1M
 SEXP.OHMM                                                 :EXT SHALLOW EWR PHASE RES  C=MEAN G=1M
 TEMP.DEGC                                                 :TEMPERATURE C=LAST G=1M
 SFXE.HR                                                   :FORM EXPOS TIME C=SMOOTHED@0.15M G=1M
 ACCC.MM                                                   :CORR CALIPER C=SMOOTHED@0.15M G=1M
 DTCQ.US/M                                                 :COMPRESSIONAL SLOWNESS C=SMOOTHED@0.15M G=1M
 DTSQ.US/M                                                 :SHEAR SLOWNESS C=SMOOTHED@0.15M G=1M
 SPLF.PU                                                   :NEUTRON POROSITY C=SMOOTHED@.2M G=1M
 SBD2.KPM                                                  :BULK DENSITY C=SMOOTHED@.2M G=1M
 SCO2.KPM                                                  :STANDOFF CORRECTION C=SMOOTHED@.2M G=1M
 SNPE.B/E                                                  :PHOTO ELECTRIC C=SMOOTHED@.2M G=1M
~PARAMETER
#MNEM.UNIT    VALUE                                        :DESCRIPTION
#----.----    ---------------                              :-------------------
 PDAT.        MEAN SEA LEVEL                               :PERMANENT DATUM
  EPD.M       0.000000                                     :ELEVATION OF PERMANENT DATUM ABOVE MEAN SEA LEVEL
  LMF.        DRILL FLOOR                                  :LOGGING MEASURED FROM (NAME OF LOGGING ELEVATION REFERENCE)
  APD.M       47.020000                                    :ELEVATION OF DEPTH REFERENCE (LMF) ABOVE PERMANENT DATUM
~OTHER
#SPERRY-SUN DRILLING SERVICES WILL USE ITS BEST EFFORTS TO FURNISH CUSTOMERS
# WITH ACCURATE INFORMATION AND INTERPRETATIONS THAT ARE PART OF, AND INCIDENT
# TO, THE SERVICES PROVIDED.  HOWEVER, SPERRY-SUN DRILLING SERVICES CANNOT AND
# DOES NOT WARRANT THE ACCURACY OR CORRECTNESS OF SUCH INFORMATION AND
# INTERPRETATIONS.  UNDER NO CIRCUMSTANCES SHOULD ANY SUCH INFORMATION OR
# INTERPRETATION BE RELIED UPON AS THE SOLE BASIS FOR ANY DRILLING, COMPLETION,
# PRODUCTION, OR FINANCIAL DECISION OR ANY PROCEDURE INVOLVING ANY RISK TO THE
# SAFETY OF ANY DRILLING VENTURE, DRILLING RIG OR ITS CREW OR ANY THIRD PARTY.
# THE CUSTOMER HAS FULL RESPONSIBILITY FOR ALL DRILLING, COMPLETION, AND
# PRODUCTION OPERATION.  SPERRY-SUN DRILLING SERVICES MAKES NO REPRESENTATIONS
# OR WARRANTIES, EITHER EXPRESSED OR IMPLIED, INCLUDING, BUT NOT LIMITED TO,
# THE IMPLIED WARRANTIES OF MERCHANTABILITY OR FITNESS FOR A PARTICULAR PURPOSE,
# WITH RESPECT TO THE SERVICES RENDERED.  IN NO EVENT WILL SPERRY-SUN DRILLING
# SERVICES BE LIABLE FOR FAILURE TO OBTAIN ANY PARTICULAR RESULTS OR FOR ANY
# DAMAGES, INCLUDING, BUT NOT LIMITED TO, INDIRECT, SPECIAL OR CONSEQUENTIAL
# DAMAGES, RESULTING FROM THE USE OF ANY INFORMATION OR INTERPRETATION PROVIDED
# BY SPERRY-SUN DRILLING SERVICES.
~ASCII     DEPT            TVD           SROP           SGRC           SEDP           SEMP           SESP           SEXP           TEMP           SFXE           ACCC           DTCQ           DTSQ           SPLF           SBD2           SCO2           SNPE
# ...
     3868.36800     3487.22000       12.60000       10.21000     2000.00000     2000.00000      611.12000      111.01000       75.70000        1.38000      219.40000      189.00000      327.00000        5.23000     2739.00000      108.00000        2.61000
     3868.52040     3487.23000       12.30000       10.14000      869.97000      672.19000      179.52000       68.19000       75.70000        1.38000      223.19000      199.00000      319.00000        5.18000     2762.00000       98.00000        2.64000
     3868.67280     3487.24000       12.60000       10.36000      207.34000      154.33000       71.34000       42.51000       75.70000        1.38000      227.73000      206.00000      310.00000        5.12000     2597.00000       68.00000        2.44000
     3868.82520     3487.26000       10.90000       10.59000     2000.00000     2000.00000     2000.00000       71.89000       75.70000        1.38000      246.76000      172.00000      315.00000        5.20000     2589.00000       76.00000        2.45000
     3868.97760     3487.27000        9.60000       11.00000     2000.00000     2000.00000     2000.00000     2000.00000       75.70000        1.37000      240.03000      168.00000      311.00000        5.18000     2608.00000       72.00000        2.49000
     3869.13000     3487.29000        9.90000       11.33000     2000.00000     2000.00000     2000.00000      103.57000       75.70000        1.37000      221.79000      171.00000      298.00000        4.58000     2619.00000       71.00000        2.58000
     3869.28240     3487.30000       10.80000       10.80000     2000.00000     2000.00000     2000.00000      136.68000       75.70000        1.37000      220.78000      168.00000      288.00000        4.27000     2623.00000       71.00000        2.38000
     3869.43480     3487.31000       11.60000       11.57000     2000.00000     1732.82000     2000.00000      155.47000       75.70000        1.36000      222.01000      179.00000      295.00000        4.78000     2590.00000       32.00000        2.67000
     3869.58720     3487.32000       12.70000       11.37000     2000.00000      631.40000     1010.07000      103.44000       75.70000        1.36000      222.40000      193.00000      311.00000        5.31000     2530.00000        9.00000        2.70000
     3869.73960     3487.34000       13.30000       11.51000      635.48000      495.21000      165.59000       71.99000       75.70000        1.36000      221.14000      180.00000      308.00000        6.70000     2617.00000      154.00000        2.46000
     3869.89200     3487.35000       13.40000       11.53000      460.90000      409.21000      129.73000       63.95000       75.70000        1.36000      221.98000      173.00000      308.00000        7.08000     2604.00000      141.00000        2.50000
     3870.04440     3487.36000       14.10000       11.26000     2000.00000      946.95000      232.71000       63.50000       75.70000        1.36000      228.25000      169.00000      300.00000        6.00000     2547.00000       19.00000        2.72000
     3870.19680     3487.37000       13.50000       10.77000      519.28000      576.69000      131.22000       60.92000       75.70000        1.36000      222.72000      174.00000      302.00000        5.23000     2577.00000       40.00000        2.62000
     3870.34920     3487.39000       12.60000       10.76000     2000.00000     2000.00000      344.25000       79.66000       75.70000        1.36000      226.32000      177.00000      304.00000        3.83000     2618.00000       67.00000        2.45000
     3870.50160     3487.40000       12.60000       11.03000     2000.00000     2000.00000      387.90000      158.74000       75.70000        1.36000      227.82000      177.00000      311.00000        3.95000     2641.00000       73.00000        2.63000
     3870.65400     3487.41000       11.60000       10.95000     2000.00000     2000.00000     2000.00000       83.94000       75.70000        1.36000      235.48000      167.00000      319.00000        4.29000     2640.00000       55.00000        2.74000
     3870.80640     3487.42000       10.90000       11.33000     2000.00000     2000.00000     2000.00000       57.84000       75.70000        1.36000      227.48000      164.00000      330.00000        4.39000     2639.00000       49.00000        2.63000
     3870.95880     3487.44000       10.80000       11.38000     2000.00000      761.97000      185.08000       66.47000       75.70000        1.35000      223.90000      147.00000      299.00000        6.28000     2683.00000       55.00000        2.78000
     3871.11120     3487.45000       10.70000       11.41000      371.44000      183.05000      249.58000       36.72000       75.70000        1.35000      229.95000      172.00000      302.00000        6.49000     2691.00000       48.00000        2.76000
     3871.26360     3487.46000       10.90000       11.99000      543.31000      395.29000      173.80000       51.26000       75.70000        1.35000      227.59000      167.00000      304.00000        5.52000     2680.00000       47.00000        2.61000
     3871.41600     3487.47000       10.20000       11.88000     2000.00000     2000.00000     1827.05000       78.19000       75.70000        1.36000      231.72000      167.00000      296.00000        5.59000     2650.00000       48.00000        2.62000
     3871.56840     3487.49000       10.00000       12.07000     2000.00000     2000.00000     2000.00000      172.57000       75.70000        1.52000      230.49000      165.00000      313.00000        5.82000     2652.00000       58.00000        2.57000
     3871.72080     3487.50000       11.10000       12.18000     2000.00000     2000.00000     2000.00000      117.37000       75.70000        1.52000      226.46000      153.00000      303.00000        5.83000     2657.00000       53.00000        2.53000
     3871.87320     3487.51000       10.80000       12.43000     2000.00000     1154.12000     2000.00000       82.45000       75.70000        1.52000      230.22000      176.00000      293.00000        5.46000     2602.00000       40.00000        2.61000
     3872.02560     3487.53000       11.70000       11.83000     2000.00000     2000.00000     2000.00000      234.15000       75.70000        1.52000      221.90000      180.00000      289.00000        6.03000     2643.00000      105.00000        2.92000
     3872.17800     3487.54000       11.10000       11.62000     2000.00000     2000.00000     2000.00000      517.16000       75.70000        1.52000      219.96000      188.00000      280.00000        6.35000     2621.00000       71.00000        3.03000
     3872.33040     3487.55000       11.20000       11.40000      862.76000      509.46000      304.87000       78.10000       75.70000        1.53000      221.47000      171.00000      294.00000        6.24000     2626.00000       49.00000        2.52000
     3872.48280     3487.56000       11.50000       11.87000      461.33000      365.15000      210.34000       57.75000       75.70000        1.53000      221.71000      177.00000      293.00000        6.26000     2682.00000       97.00000        2.50000
     3872.63520     3487.58000       11.80000       12.15000      564.12000     1811.26000      412.59000       57.59000       75.70000        1.53000      221.04000      174.00000      299.00000        5.85000     2544.00000       29.00000        2.44000
     3872.78760     3487.59000        9.30000       12.39000     2000.00000     2000.00000     2000.00000       93.79000       75.70000        1.53000      226.16000      174.00000      296.00000        5.62000     2513.00000       18.00000        2.43000
     3872.94000     3487.60000        5.20000       10.98000     2000.00000     2000.00000     2000.00000      245.07000       75.70000        1.49000      229.64000      174.00000      306.00000        5.58000     2648.00000       72.00000        2.41000
     3873.09240     3487.61000        4.70000       10.93000     2000.00000     2000.00000      806.54000      118.03000       75.70000        1.48000      228.70000      174.00000      308.00000        5.25000     2647.00000       87.00000        2.57000
