~VERSION
 VERS.        2.0                                          :CWLS LOG ASCII STANDARD - VERSION 2.0
 WRAP.        NO                                           :ONE LINE PER DEPTH STEP
~WELL
#       MNEM.UNIT                DATA                    DESCRIPTION OF MNEMONIC
#----------------------    ----------------              -----------------------
 STRT.M       3210.00000                                                                                     :START DEPTH
 STOP.M       3934.66200                                                                                     :STOP DEPTH
 STEP.M       0.15240                                                                                        :STEP DEPTH
 NULL.        -999.25000                                                                                     :NULL VALUE
 COMP.        PanCanadian Petroleum Limited                                                                  :COMPANY NAME
 WELL.        Panuke M-79A                                                                                   :WELL NAME
  FLD.        Panuke                                                                                         :FIELD NAME
  LOC.        Panuke                                                                                         :LOCATION / LEASE
 PROV.        Nova Scotia                                                                                    :PROVINCE
 CTRY.        CANADA                                                                                         :COUNTRY
 SRVC.        SPERRY-SUN DRILLING SERVICES                                                                   :SERVICE COMPANY
 DATE.        29-Oct-2000                                                                                    :DATE
  UWI.        300M794350060301                                                                               :UNIQUE WELL ID
 LATI.DEG     43 48' 32.10" N                                                                                :LATITUDE
 LONG.DEG     60 41' 59.81" W                                                                                :LONGITUDE
~CURVE
#MNEM.UNIT    VALUE                                        :DESCRIPTION
#----.----    ---------------                              :-------------------
 DEPT.M       00 001 00 00                                 :Depth Index
  TVD.M                                                    :TVD C=LAST G=1M
 SROP.M/HR                                                 :RATE OF PENETRATION C=SMOOTHED@0.5M G=1M
 SGRC.API                                                  :GAMMA RAY C=SMOOTHED@0.5M G=1M
 SEDP.OHMM                                                 :DEEP EWR PHASE RES  C=MEAN G=1M
 SEMP.OHMM                                                 :MEDIUM EWR PHASE RES  C=MEAN G=1M
 SESP.OHMM                                                 :SHALLOW EWR PHASE RES  C=MEAN G=1M
 SEXP.OHMM                                                 :EXT SHALLOW EWR PHASE RES  C=MEAN G=1M
 TEMP.DEGC                                                 :TEMPERATURE C=LAST G=1M
 SFXE.HR                                                   :FORM EXPOS TIME C=SMOOTHED@0.15M G=1M
 ACCC.MM                                                   :CORR CALIPER C=SMOOTHED@0.15M G=1M
 DTCQ.US/M                                                 :COMPRESSIONAL SLOWNESS C=SMOOTHED@0.15M G=1M
 DTSQ.US/M                                                 :SHEAR SLOWNESS C=SMOOTHED@0.15M G=1M
 SPLF.PU                                                   :NEUTRON POROSITY C=SMOOTHED@.2M G=1M
 SBD2.KPM                                                  :BULK DENSITY C=SMOOTHED@.2M G=1M
 SCO2.KPM                                                  :STANDOFF CORRECTION C=SMOOTHED@.2M G=1M
 SNPE.B/E                                                  :PHOTO ELECTRIC C=SMOOTHED@.2M G=1M
~PARAMETER
#MNEM.UNIT    VALUE                                        :DESCRIPTION
#----.----    ---------------                              :-------------------
 PDAT.        MEAN SEA LEVEL                               :PERMANENT DATUM
  EPD.M       0.000000                                     :ELEVATION OF PERMANENT DATUM ABOVE MEAN SEA LEVEL
  LMF.        DRILL FLOOR                                  :LOGGING MEASURED FROM (NAME OF LOGGING ELEVATION REFERENCE)
  APD.M       47.020000                                    :ELEVATION OF DEPTH REFERENCE (LMF) ABOVE PERMANENT DATUM
~OTHER
#SPERRY-SUN DRILLING SERVICES WILL USE ITS BEST EFFORTS TO FURNISH CUSTOMERS
# WITH ACCURATE INFORMATION AND INTERPRETATIONS THAT ARE PART OF, AND INCIDENT
# TO, THE SERVICES PROVIDED.  HOWEVER, SPERRY-SUN DRILLING SERVICES CANNOT AND
# DOES NOT WARRANT THE ACCURACY OR CORRECTNESS OF SUCH INFORMATION AND
# INTERPRETATIONS.  UNDER NO CIRCUMSTANCES SHOULD ANY SUCH INFORMATION OR
# INTERPRETATION BE RELIED UPON AS THE SOLE BASIS FOR ANY DRILLING, COMPLETION,
# PRODUCTION, OR FINANCIAL DECISION OR ANY PROCEDURE INVOLVING ANY RISK TO THE
# SAFETY OF ANY DRILLING VENTURE, DRILLING RIG OR ITS CREW OR ANY THIRD PARTY.
# THE CUSTOMER HAS FULL RESPONSIBILITY FOR ALL DRILLING, COMPLETION, AND
# PRODUCTION OPERATION.  SPERRY-SUN DRILLING SERVICES MAKES NO REPRESENTATIONS
# OR WARRANTIES, EITHER EXPRESSED OR IMPLIED, INCLUDING, BUT NOT LIMITED TO,
# THE IMPLIED WARRANTIES OF MERCHANTABILITY OR FITNESS FOR A PARTICULAR PURPOSE,
# WITH RESPECT TO THE SERVICES RENDERED.  IN NO EVENT WILL SPERRY-SUN DRILLING
# SERVICES BE LIABLE FOR FAILURE TO OBTAIN ANY PARTICULAR RESULTS OR FOR ANY
# DAMAGES, INCLUDING, BUT NOT LIMITED TO, INDIRECT, SPECIAL OR CONSEQUENTIAL
# DAMAGES, RESULTING FROM THE USE OF ANY INFORMATION OR INTERPRETATION PROVIDED
# BY SPERRY-SUN DRILLING SERVICES.
~ASCII     DEPT            TVD           SROP           SGRC           SEDP           SEMP           SESP           SEXP           TEMP           SFXE           ACCC           DTCQ           DTSQ           SPLF           SBD2           SCO2           SNPE
# ...
     3541.62240     3450.19000        2.60000       27.16000       37.82000       35.53000       39.40000       23.45000       67.10000        4.25000      233.05000      175.00000      347.00000        5.09000     2673.00000       30.00000        3.95000
     3541.77480     3450.25000        2.50000       26.72000       37.60000       39.55000       39.42000       24.65000       67.10000        4.22000      235.46000      179.00000      341.00000        5.48000     2665.00000       25.00000        3.93000
     3541.92720     3450.31000        2.60000       25.39000       37.92000       39.11000       45.03000       25.38000       67.10000        4.22000      237.65000      179.00000      343.00000        5.25000     2704.00000       60.00000        4.14000
     3542.07960     3450.34000        2.40000       25.69000       42.49000       42.29000       47.96000       29.78000       66.50000        4.28000      236.34000      179.00000      339.00000        5.09000     2666.00000       57.00000        4.06000
     3542.23200     3450.40000        2.10000       25.49000       45.74000       53.45000       92.46000       62.27000       66.50000        4.16000      238.75000      174.00000      347.00000        5.39000     2632.00000       33.00000        3.69000
     3542.38440     3450.44000        2.70000       24.97000       42.88000       47.26000       67.55000       53.09000       66.50000        4.12000      233.42000      175.00000      347.00000        5.38000     2633.00000       20.00000        3.87000
     3542.53680     3450.50000        3.60000       26.01000       36.86000       37.74000       44.39000       34.88000       65.90000        4.13000      229.92000      177.00000      343.00000        5.37000     2632.00000       13.00000        3.90000
     3542.68920     3450.53000        3.90000       26.28000       35.05000       35.35000       39.71000       33.09000       65.90000        4.12000      230.22000      187.00000      351.00000        5.00000     2653.00000       26.00000        4.00000
     3542.84160     3450.60000        3.90000       27.29000       34.48000       33.84000       36.63000       31.61000       65.90000        4.08000      237.21000      183.00000      341.00000        4.48000     2671.00000       30.00000        4.04000
     3542.99400     3450.63000        3.80000       27.68000       34.74000       33.81000       36.39000       32.25000       65.90000        4.07000      236.73000      188.00000      344.00000        4.73000     2687.00000       36.00000        3.90000
     3543.14640     3450.69000        3.20000       26.50000       36.84000       35.80000       39.50000       34.78000       65.90000        4.05000      227.84000      192.00000      347.00000        5.67000     2711.00000       94.00000        3.85000
     3543.29880     3450.72000        3.10000       26.00000       37.00000       35.40000       38.34000       33.42000       65.90000        4.04000      226.65000      181.00000      346.00000        5.94000     2683.00000       96.00000        4.04000
     3543.45120     3450.78000        3.40000       24.69000       37.22000       34.84000       36.66000       30.31000       65.90000        4.02000      220.93000      176.00000      338.00000        6.09000     2691.00000       82.00000        4.15000
     3543.60360     3450.81000        3.90000       24.55000       36.34000       34.17000       34.78000       29.68000       65.90000        4.02000      221.72000      179.00000      335.00000        6.23000     2667.00000       58.00000        4.04000
     3543.75600     3450.87000        4.40000       23.01000       34.72000       32.10000       32.30000       27.60000       65.90000        4.05000      227.13000      175.00000      339.00000        6.63000     2626.00000       28.00000        3.74000
     3543.90840     3450.91000        4.90000       23.28000       33.22000       30.49000       30.50000       26.56000       65.90000        4.07000      226.37000      176.00000      344.00000        6.88000     2627.00000       38.00000        3.67000
     3544.06080     3450.97000        5.30000       23.78000       31.04000       27.90000       29.36000       25.59000       65.30000        4.17000      226.36000      181.00000      352.00000        8.02000     2643.00000       94.00000        3.84000
     3544.21320     3451.00000        5.70000       23.66000       29.68000       25.99000       27.05000       23.03000       65.30000        4.15000      223.10000      179.00000      346.00000        8.27000     2644.00000      113.00000        3.92000
     3544.36560     3451.06000        4.60000       23.75000       28.25000       24.38000       23.85000       20.13000       65.30000        4.10000      220.50000      181.00000      337.00000        8.20000     2658.00000      131.00000        3.90000
     3544.51800     3451.09000        4.70000       23.82000       30.26000       26.35000       26.27000       22.59000       65.30000        4.08000      222.39000      182.00000      342.00000        8.49000     2681.00000      137.00000        3.80000
     3544.67040     3451.16000        5.10000       24.81000       33.59000       30.57000       31.80000       29.72000       65.30000        4.06000      223.98000      183.00000      352.00000        8.04000     2657.00000      110.00000        3.44000
     3544.82280     3451.18000        4.80000       25.50000       33.32000       30.34000       30.91000       29.35000       65.30000        4.06000      221.87000      185.00000      355.00000        7.74000     2663.00000       84.00000        3.50000
     3544.97520     3451.25000        3.40000       26.67000       26.62000       21.95000       20.11000       17.11000       65.30000        4.05000      221.70000      187.00000      349.00000        7.70000     2665.00000       42.00000        3.49000
     3545.12760     3451.31000        2.50000       28.87000       26.24000       21.84000       19.09000       15.24000       65.30000        4.02000      218.99000      193.00000      358.00000        6.09000     2614.00000       51.00000        3.40000
     3545.28000     3451.34000        1.90000       30.68000       27.37000       22.88000       20.31000       15.67000       65.30000        3.97000      218.98000      195.00000      372.00000        5.73000     2613.00000       65.00000        3.44000
     3545.43240     3451.40000        1.40000       33.60000       30.73000       26.77000       25.87000       20.10000       65.30000        3.99000      219.16000      196.00000      366.00000        4.78000     2664.00000       82.00000        3.34000
     3545.58480     3451.43000        1.60000       33.98000       28.54000       24.69000       24.51000       19.91000       65.30000        4.02000      219.64000      193.00000      365.00000        4.57000     2665.00000       83.00000        3.30000
     3545.73720     3451.49000        1.90000       33.61000       27.83000       24.43000       25.40000       21.36000       65.30000        3.98000      219.64000      188.00000      373.00000        4.49000     2632.00000       50.00000        3.44000
     3545.88960     3451.52000        2.70000       32.96000       27.70000       24.32000       25.94000       21.62000       65.30000        3.96000      220.45000      190.00000      375.00000        4.49000     2615.00000       29.00000        3.24000
     3546.04200     3451.58000        4.60000       30.73000       27.49000       25.42000       25.91000       22.20000       65.30000        3.96000      229.95000      170.00000      379.00000        4.67000     2625.00000       37.00000        3.15000
     3546.19440     3451.61000        5.20000       29.91000       27.64000       26.22000       26.47000       22.73000       65.30000        3.97000      229.73000      185.00000      372.00000        5.04000     2640.00000       61.00000        3.36000
     3546.34680     3451.67000        4.60000       27.58000       30.07000       28.56000       28.22000       26.89000       65.30000        3.98000      217.11000      198.00000      374.00000        6.31000     2635.00000       97.00000        3.55000
