~VERSION
 VERS.        2.0                                          :CWLS LOG ASCII STANDARD - VERSION 2.0
 WRAP.        NO                                           :ONE LINE PER DEPTH STEP
~WELL
#       MNEM.UNIT                DATA                    DESCRIPTION OF MNEMONIC
#----------------------    ----------------              -----------------------
 STRT.M       3210.00000                                                                                     :START DEPTH
 STOP.M       3934.66200                                                                                     :STOP DEPTH
 STEP.M       0.15240                                                                                        :STEP DEPTH
 NULL.        -999.25000                                                                                     :NULL VALUE
 COMP.        PanCanadian Petroleum Limited                                                                  :COMPANY NAME
 WELL.        Panuke M-79A                                                                                   :WELL NAME
  FLD.        Panuke                                                                                         :FIELD NAME
  LOC.        Panuke                                                                                         :LOCATION / LEASE
 PROV.        Nova Scotia                                                                                    :PROVINCE
 CTRY.        CANADA                                                                                         :COUNTRY
 SRVC.        SPERRY-SUN DRILLING SERVICES                                                                   :SERVICE COMPANY
 DATE.        29-Oct-2000                                                                                    :DATE
  UWI.        300M794350060301                                                                               :UNIQUE WELL ID
 LATI.DEG     43 48' 32.10" N                                                                                :LATITUDE
 LONG.DEG     60 41' 59.81" W                                                                                :LONGITUDE
~CURVE
#MNEM.UNIT    VALUE                                        :DESCRIPTION
#----.----    ---------------                              :-------------------
 DEPT.M       00 001 00 00                                 :Depth Index
  TVD.M                                                    :TVD C=LAST G=1M
 SROP.M/HR                                                 :RATE OF PENETRATION C=SMOOTHED@0.5M G=1M
 SGRC.API                                                  :GAMMA RAY C=SMOOTHED@0.5M G=1M
 SEDP.OHMM                                                 :DEEP EWR PHASE RES  C=MEAN G=1M
 SEMP.OHMM                                                 :MEDIUM EWR PHASE RES  C=MEAN G=1M
 SESP.OHMM                                                 :SHALLOW EWR PHASE RES  C=MEAN G=1M
 SEXP.OHMM                                                 :EXT SHALLOW EWR PHASE RES  C=MEAN G=1M
 TEMP.DEGC                                                 :TEMPERATURE C=LAST G=1M
 SFXE.HR                                                   :FORM EXPOS TIME C=SMOOTHED@0.15M G=1M
 ACCC.MM                                                   :CORR CALIPER C=SMOOTHED@0.15M G=1M
 DTCQ.US/M                                                 :COMPRESSIONAL SLOWNESS C=SMOOTHED@0.15M G=1M
 DTSQ.US/M                                                 :SHEAR SLOWNESS C=SMOOTHED@0.15M G=1M
 SPLF.PU                                                   :NEUTRON POROSITY C=SMOOTHED@.2M G=1M
 SBD2.KPM                                                  :BULK DENSITY C=SMOOTHED@.2M G=1M
 SCO2.KPM                                                  :STANDOFF CORRECTION C=SMOOTHED@.2M G=1M
 SNPE.B/E                                                  :PHOTO ELECTRIC C=SMOOTHED@.2M G=1M
~PARAMETER
#MNEM.UNIT    VALUE                                        :DESCRIPTION
#----.----    ---------------                              :-------------------
 PDAT.        MEAN SEA LEVEL                               :PERMANENT DATUM
  EPD.M       0.000000                                     :ELEVATION OF PERMANENT DATUM ABOVE MEAN SEA LEVEL
  LMF.        DRILL FLOOR                                  :LOGGING MEASURED FROM (NAME OF LOGGING ELEVATION REFERENCE)
  APD.M       47.020000                                    :ELEVATION OF DEPTH REFERENCE (LMF) ABOVE PERMANENT DATUM
~OTHER
#SPERRY-SUN DRILLING SERVICES WILL USE ITS BEST EFFORTS TO FURNISH CUSTOMERS
# WITH ACCURATE INFORMATION AND INTERPRETATIONS THAT ARE PART OF, AND INCIDENT
# TO, THE SERVICES PROVIDED.  HOWEVER, SPERRY-SUN DRILLING SERVICES CANNOT AND
# DOES NOT WARRANT THE ACCURACY OR CORRECTNESS OF SUCH INFORMATION AND
# INTERPRETATIONS.  UNDER NO CIRCUMSTANCES SHOULD ANY SUCH INFORMATION OR
# INTERPRETATION BE RELIED UPON AS THE SOLE BASIS FOR ANY DRILLING, COMPLETION,
# PRODUCTION, OR FINANCIAL DECISION OR ANY PROCEDURE INVOLVING ANY RISK TO THE
# SAFETY OF ANY DRILLING VENTURE, DRILLING RIG OR ITS CREW OR ANY THIRD PARTY.
# THE CUSTOMER HAS FULL RESPONSIBILITY FOR ALL DRILLING, COMPLETION, AND
# PRODUCTION OPERATION.  SPERRY-SUN DRILLING SERVICES MAKES NO REPRESENTATIONS
# OR WARRANTIES, EITHER EXPRESSED OR IMPLIED, INCLUDING, BUT NOT LIMITED TO,
# THE IMPLIED WARRANTIES OF MERCHANTABILITY OR FITNESS FOR A PARTICULAR PURPOSE,
# WITH RESPECT TO THE SERVICES RENDERED.  IN NO EVENT WILL SPERRY-SUN DRILLING
# SERVICES BE LIABLE FOR FAILURE TO OBTAIN ANY PARTICULAR RESULTS OR FOR ANY
# DAMAGES, INCLUDING, BUT NOT LIMITED TO, INDIRECT, SPECIAL OR CONSEQUENTIAL
# DAMAGES, RESULTING FROM THE USE OF ANY INFORMATION OR INTERPRETATION PROVIDED
# BY SPERRY-SUN DRILLING SERVICES.
~ASCII     DEPT            TVD           SROP           SGRC           SEDP           SEMP           SESP           SEXP           TEMP           SFXE           ACCC           DTCQ           DTSQ           SPLF           SBD2           SCO2           SNPE
# ...
     3775.70880     3478.94000        4.10000       20.32000      254.70000      184.24000       46.36000        8.07000       73.20000        3.73000      261.21000      156.00000      332.00000       21.54000     2296.00000      175.00000        2.73000
     3775.86120     3478.95000        4.00000       21.50000      308.98000      188.81000       45.55000        7.38000       73.20000        3.70000      273.97000      172.00000      336.00000       19.69000     2283.00000      144.00000        3.07000
     3776.01360     3478.96000        4.10000       21.91000      828.44000      312.03000       48.50000        7.56000       73.20000        3.69000      275.72000      177.00000      326.00000       18.05000     2280.00000      116.00000        3.24000
     3776.16600     3478.98000        3.80000       22.99000     2000.00000     2000.00000     2000.00000       15.51000       73.20000        3.65000      266.70000      159.00000      334.00000       14.11000     2335.00000       53.00000        3.14000
     3776.31840     3478.99000        3.80000       23.48000     2000.00000     2000.00000     2000.00000       18.49000       73.20000        3.63000      267.45000      166.00000      329.00000       13.70000     2395.00000       27.00000        3.03000
     3776.47080     3479.00000        3.50000       23.56000     2000.00000     2000.00000      157.17000       13.87000       73.20000        3.59000      260.35000      181.00000      333.00000       13.07000     2612.00000       51.00000        3.57000
     3776.62320     3479.01000        3.90000       22.97000      372.40000      286.62000       56.76000       11.25000       73.20000        3.57000      258.21000      186.00000      340.00000       13.59000     2556.00000        7.00000        3.41000
     3776.77560     3479.03000        4.00000       22.12000      112.30000       72.20000       27.37000        8.31000       73.20000        3.53000      265.54000      176.00000      351.00000       12.48000     2416.00000       21.00000        3.63000
     3776.92800     3479.04000        4.20000       22.18000     2000.00000     2000.00000     2000.00000       16.48000       73.20000        3.50000      270.19000      171.00000      339.00000       12.84000     2487.00000       44.00000        3.83000
     3777.08040     3479.05000        4.00000       22.23000     2000.00000     2000.00000      179.94000       15.24000       73.20000        3.49000      263.01000      172.00000      330.00000       13.89000     2621.00000       67.00000        3.73000
     3777.23280     3479.06000        3.90000       23.15000     2000.00000     2000.00000      421.93000       17.63000       73.20000        3.46000      253.28000      184.00000      350.00000       10.72000     2650.00000       24.00000        3.73000
     3777.38520     3479.07000        3.20000       23.12000     2000.00000     2000.00000     2000.00000       24.54000       73.20000        3.45000      248.55000      182.00000      354.00000       10.39000     2682.00000       81.00000        3.43000
     3777.53760     3479.09000        3.70000       23.51000     2000.00000     2000.00000     2000.00000       60.29000       72.00000        3.60000      245.32000      170.00000      339.00000        9.71000     2702.00000      153.00000        3.36000
     3777.69000     3479.10000        3.80000       23.84000     2000.00000     2000.00000      507.27000       47.18000       72.00000        3.63000      246.57000      174.00000      330.00000        9.13000     2679.00000      140.00000        3.51000
     3777.84240     3479.11000        4.30000       24.57000     2000.00000     2000.00000     2000.00000       82.71000       72.00000        3.30000      239.95000      176.00000      347.00000        7.57000     2627.00000       59.00000        3.85000
     3777.99480     3479.12000        5.60000       24.11000     1912.43000     2000.00000     2000.00000      106.12000       72.00000        3.20000      236.90000      174.00000      337.00000        7.00000     2652.00000       57.00000        3.80000
     3778.14720     3479.14000        6.60000       23.01000      303.26000      227.64000      419.61000       72.31000       72.00000        3.19000      245.47000      168.00000      319.00000        6.71000     2688.00000       85.00000        3.70000
     3778.29960     3479.14000        6.00000       21.96000      205.12000      162.97000      129.21000       52.70000       72.00000        3.20000      236.40000      161.00000      322.00000        6.83000     2738.00000      140.00000        3.57000
     3778.45200     3479.16000        5.40000       22.28000      103.68000       75.08000       50.09000       28.69000       72.00000        3.21000      237.74000      167.00000      340.00000        7.08000     2658.00000       69.00000        3.60000
     3778.60440     3479.17000        5.30000       22.67000      147.36000      107.65000       80.49000       38.51000       72.00000        3.21000      239.46000      164.00000      335.00000        7.17000     2602.00000       -1.00000        3.34000
     3778.75680     3479.18000        4.90000       22.12000      163.97000      111.79000       79.29000       41.85000       72.00000        3.21000      235.76000      167.00000      320.00000        5.35000     2646.00000       15.00000        3.70000
     3778.90920     3479.19000        4.50000       21.71000      170.24000      115.71000       84.21000       39.24000       72.00000        3.22000      238.24000      167.00000      315.00000        4.01000     2629.00000       -4.00000        4.26000
     3779.06160     3479.21000        4.90000       20.50000      916.33000      843.30000      746.14000       96.90000       72.00000        3.23000      243.06000      172.00000      319.00000        2.55000     2631.00000        8.00000        4.06000
     3779.21400     3479.22000        5.30000       18.90000     1355.12000     2000.00000      612.07000       94.12000       72.00000        3.23000      245.02000      177.00000      324.00000        2.28000     2640.00000       16.00000        3.91000
     3779.36640     3479.23000        5.80000       14.64000      349.62000      252.60000      191.61000       61.90000       72.00000        3.23000      236.29000      171.00000      322.00000        1.67000     2658.00000       34.00000        3.92000
     3779.51880     3479.24000        7.00000       13.04000      274.75000      210.00000      168.92000       53.07000       72.00000        3.23000      237.84000      171.00000      324.00000        1.97000     2656.00000       55.00000        3.75000
     3779.67120     3479.26000        8.70000       11.87000      310.67000      261.92000      217.17000       59.76000       72.00000        3.19000      240.55000      168.00000      324.00000        1.94000     2588.00000      -15.00000        3.73000
     3779.82360     3479.26000       12.90000       11.89000      489.26000      397.55000      461.76000       65.86000       72.00000        3.17000      243.78000      173.00000      319.00000        1.75000     2609.00000       -1.00000        3.82000
     3779.97600     3479.28000       15.80000       12.26000      398.62000      418.76000      307.94000       70.50000       72.60000        3.21000      237.47000      171.00000      322.00000        1.77000     2642.00000       21.00000        4.02000
     3780.12840     3479.29000        7.70000       13.59000      356.28000      468.19000      787.08000       60.01000       72.60000        3.25000      232.02000      172.00000      326.00000        1.48000     2643.00000        5.00000        4.17000
     3780.28080     3479.30000        5.30000       13.84000      615.46000      487.53000     2000.00000       85.46000       72.60000        3.24000      232.49000      174.00000      327.00000        1.49000     2648.00000       13.00000        4.15000
     3780.43320     3479.32000        2.70000       14.17000      733.75000     1056.31000     2000.00000      139.78000       72.60000        3.24000      231.17000      172.00000      322.00000        1.36000     2625.00000        6.00000        3.90000
