~VERSION
 VERS.        2.0                                          :CWLS LOG ASCII STANDARD - VERSION 2.0
 WRAP.        NO                                           :ONE LINE PER DEPTH STEP
~WELL
#       MNEM.UNIT                DATA                    DESCRIPTION OF MNEMONIC
#----------------------    ----------------              -----------------------
 STRT.M       3210.00000                                                                                     :START DEPTH
 STOP.M       3934.66200                                                                                     :STOP DEPTH
 STEP.M       0.15240                                                                                        :STEP DEPTH
 NULL.        -999.25000                                                                                     :NULL VALUE
 COMP.        PanCanadian Petroleum Limited                                                                  :COMPANY NAME
 WELL.        Panuke M-79A                                                                                   :WELL NAME
  FLD.        Panuke                                                                                         :FIELD NAME
  LOC.        Panuke                                                                                         :LOCATION / LEASE
 PROV.        Nova Scotia                                                                                    :PROVINCE
 CTRY.        CANADA                                                                                         :COUNTRY
 SRVC.        SPERRY-SUN DRILLING SERVICES                                                                   :SERVICE COMPANY
 DATE.        29-Oct-2000                                                                                    :DATE
  UWI.        300M794350060301                                                                               :UNIQUE WELL ID
 LATI.DEG     43 48' 32.10" N                                                                                :LATITUDE
 LONG.DEG     60 41' 59.81" W                                                                                :LONGITUDE
~CURVE
#MNEM.UNIT    VALUE                                        :DESCRIPTION
#----.----    ---------------                              :-------------------
 DEPT.M       00 001 00 00                                 :Depth Index
  TVD.M                                                    :TVD C=LAST G=1M
 SROP.M/HR                                                 :RATE OF PENETRATION C=SMOOTHED@0.5M G=1M
 SGRC.API                                                  :GAMMA RAY C=SMOOTHED@0.5M G=1M
 SEDP.OHMM                                                 :DEEP EWR PHASE RES  C=MEAN G=1M
 SEMP.OHMM                                                 :MEDIUM EWR PHASE RES  C=MEAN G=1M
 SESP.OHMM                                                 :SHALLOW EWR PHASE RES  C=MEAN G=1M
 SEXP.OHMM                                                 :EXT SHALLOW EWR PHASE RES  C=MEAN G=1M
 TEMP.DEGC                                                 :TEMPERATURE C=LAST G=1M
 SFXE.HR                                                   :FORM EXPOS TIME C=SMOOTHED@0.15M G=1M
 ACCC.MM                                                   :CORR CALIPER C=SMOOTHED@0.15M G=1M
 DTCQ.US/M                                                 :COMPRESSIONAL SLOWNESS C=SMOOTHED@0.15M G=1M
 DTSQ.US/M                                                 :SHEAR SLOWNESS C=SMOOTHED@0.15M G=1M
 SPLF.PU                                                   :NEUTRON POROSITY C=SMOOTHED@.2M G=1M
 SBD2.KPM                                                  :BULK DENSITY C=SMOOTHED@.2M G=1M
 SCO2.KPM                                                  :STANDOFF CORRECTION C=SMOOTHED@.2M G=1M
 SNPE.B/E                                                  :PHOTO ELECTRIC C=SMOOTHED@.2M G=1M
~PARAMETER
#MNEM.UNIT    VALUE                                        :DESCRIPTION
#----.----    ---------------                              :-------------------
 PDAT.        MEAN SEA LEVEL                               :PERMANENT DATUM
  EPD.M       0.000000                                     :ELEVATION OF PERMANENT DATUM ABOVE MEAN SEA LEVEL
  LMF.        DRILL FLOOR                                  :LOGGING MEASURED FROM (NAME OF LOGGING ELEVATION REFERENCE)
  APD.M       47.020000                                    :ELEVATION OF DEPTH REFERENCE (LMF) ABOVE PERMANENT DATUM
~OTHER
#SPERRY-SUN DRILLING SERVICES WILL USE ITS BEST EFFORTS TO FURNISH CUSTOMERS
# WITH ACCURATE INFORMATION AND INTERPRETATIONS THAT ARE PART OF, AND INCIDENT
# TO, THE SERVICES PROVIDED.  HOWEVER, SPERRY-SUN DRILLING SERVICES CANNOT AND
# DOES NOT WARRANT THE ACCURACY OR CORRECTNESS OF SUCH INFORMATION AND
# INTERPRETATIONS.  UNDER NO CIRCUMSTANCES SHOULD ANY SUCH INFORMATION OR
# INTERPRETATION BE RELIED UPON AS THE SOLE BASIS FOR ANY DRILLING, COMPLETION,
# PRODUCTION, OR FINANCIAL DECISION OR ANY PROCEDURE INVOLVING ANY RISK TO THE
# SAFETY OF ANY DRILLING VENTURE, DRILLING RIG OR ITS CREW OR ANY THIRD PARTY.
# THE CUSTOMER HAS FULL RESPONSIBILITY FOR ALL DRILLING, COMPLETION, AND
# PRODUCTION OPERATION.  SPERRY-SUN DRILLING SERVICES MAKES NO REPRESENTATIONS
# OR WARRANTIES, EITHER EXPRESSED OR IMPLIED, INCLUDING, BUT NOT LIMITED TO,
# THE IMPLIED WARRANTIES OF MERCHANTABILITY OR FITNESS FOR A PARTICULAR PURPOSE,
# WITH RESPECT TO THE SERVICES RENDERED.  IN NO EVENT WILL SPERRY-SUN DRILLING
# SERVICES BE LIABLE FOR FAILURE TO OBTAIN ANY PARTICULAR RESULTS OR FOR ANY
# DAMAGES, INCLUDING, BUT NOT LIMITED TO, INDIRECT, SPECIAL OR CONSEQUENTIAL
# DAMAGES, RESULTING FROM THE USE OF ANY INFORMATION OR INTERPRETATION PROVIDED
# BY SPERRY-SUN DRILLING SERVICES.
~ASCII     DEPT            TVD           SROP           SGRC           SEDP           SEMP           SESP           SEXP           TEMP           SFXE           ACCC           DTCQ           DTSQ           SPLF           SBD2           SCO2           SNPE
# ...
     3917.13600     3490.98000       17.90000        9.95000      965.57000      623.80000      323.63000       40.35000       76.30000        1.60000      228.31000     -999.25000     -999.25000     -999.25000     -999.25000     -999.25000     -999.25000
     3917.28840     3490.99000       18.80000        9.93000     1128.85000      977.50000      169.97000       45.04000       76.30000        1.60000      231.70000     -999.25000     -999.25000     -999.25000     -999.25000     -999.25000     -999.25000
     3917.44080     3491.00000       19.50000       10.95000     2000.00000     2000.00000      386.56000       61.49000       76.30000        1.60000      224.98000     -999.25000     -999.25000     -999.25000     -999.25000     -999.25000     -999.25000
     3917.59320     3491.01000       18.30000       11.55000      863.62000      313.43000      180.31000       39.37000       76.30000        1.61000      227.36000     -999.25000     -999.25000     -999.25000     -999.25000     -999.25000     -999.25000
     3917.74560     3491.02000       16.40000       12.32000      797.61000      239.35000      152.80000       38.00000       76.30000        1.61000      226.42000     -999.25000     -999.25000     -999.25000     -999.25000     -999.25000     -999.25000
     3917.89800     3491.03000       14.00000       11.89000      201.66000      119.67000       59.00000       24.29000       76.30000        1.61000     -999.25000     -999.25000     -999.25000     -999.25000     -999.25000     -999.25000     -999.25000
     3918.05040     3491.04000        9.40000       10.72000       92.19000       58.34000       36.56000       17.80000       76.30000        1.60000     -999.25000     -999.25000     -999.25000     -999.25000     -999.25000     -999.25000     -999.25000
     3918.20280     3491.05000        9.70000       10.80000       66.79000       45.03000       26.79000       14.08000       76.30000        1.60000     -999.25000     -999.25000     -999.25000     -999.25000     -999.25000     -999.25000     -999.25000
     3918.35520     3491.06000        9.50000       11.16000       35.57000       20.31000       11.03000        6.55000       76.30000        1.59000     -999.25000     -999.25000     -999.25000     -999.25000     -999.25000     -999.25000     -999.25000
     3918.50760     3491.07000        8.90000       11.48000       68.83000       41.63000       16.60000       10.08000       76.30000        1.62000     -999.25000     -999.25000     -999.25000     -999.25000     -999.25000     -999.25000     -999.25000
     3918.66000     3491.08000        8.00000       11.89000     2000.00000     2000.00000       54.68000       13.54000       75.70000        1.77000     -999.25000     -999.25000     -999.25000     -999.25000     -999.25000     -999.25000     -999.25000
     3918.81240     3491.09000        7.10000       12.07000     2000.00000     2000.00000      127.05000       15.13000       75.70000        1.73000     -999.25000     -999.25000     -999.25000     -999.25000     -999.25000     -999.25000     -999.25000
     3918.96480     3491.11000        7.50000       12.28000     2000.00000     2000.00000       84.84000       16.34000       75.70000        1.39000     -999.25000     -999.25000     -999.25000     -999.25000     -999.25000     -999.25000     -999.25000
     3919.11720     3491.11000        6.90000       11.81000     2000.00000     2000.00000       54.02000       15.17000       75.70000        1.23000     -999.25000     -999.25000     -999.25000     -999.25000     -999.25000     -999.25000     -999.25000
     3919.26960     3491.13000        7.10000       10.88000     2000.00000     2000.00000      119.53000       24.31000       75.70000        1.14000     -999.25000     -999.25000     -999.25000     -999.25000     -999.25000     -999.25000     -999.25000
     3919.42200     3491.13000       10.30000       10.41000     2000.00000     2000.00000       94.61000       27.28000       75.70000        1.13000     -999.25000     -999.25000     -999.25000     -999.25000     -999.25000     -999.25000     -999.25000
     3919.57440     3491.15000       14.30000       10.92000     2000.00000      387.37000       75.12000       31.50000       75.70000        1.13000     -999.25000     -999.25000     -999.25000     -999.25000     -999.25000     -999.25000     -999.25000
     3919.72680     3491.16000       12.10000       10.40000     2000.00000      249.02000      187.83000       42.25000       75.70000        1.13000     -999.25000     -999.25000     -999.25000     -999.25000     -999.25000     -999.25000     -999.25000
     3919.87920     3491.17000       11.30000       10.59000     2000.00000      428.19000      417.96000       51.97000       75.70000        1.13000     -999.25000     -999.25000     -999.25000     -999.25000     -999.25000     -999.25000     -999.25000
     3920.03160     3491.18000        9.00000       11.33000      811.60000      550.34000      447.51000       72.46000       75.70000        1.13000     -999.25000     -999.25000     -999.25000     -999.25000     -999.25000     -999.25000     -999.25000
     3920.18400     3491.19000        8.20000     -999.25000      684.67000      405.18000      470.17000       69.41000       75.70000        1.11000     -999.25000     -999.25000     -999.25000     -999.25000     -999.25000     -999.25000     -999.25000
     3920.33640     3491.20000        7.70000     -999.25000      920.99000      450.73000      366.41000       63.66000       75.70000        1.10000     -999.25000     -999.25000     -999.25000     -999.25000     -999.25000     -999.25000     -999.25000
     3920.48880     3491.21000        8.20000     -999.25000     1218.47000      602.15000      357.69000       71.24000       75.70000        1.10000     -999.25000     -999.25000     -999.25000     -999.25000     -999.25000     -999.25000     -999.25000
     3920.64120     3491.22000        9.70000     -999.25000     1259.03000     2000.00000      280.75000       65.26000       75.70000        1.09000     -999.25000     -999.25000     -999.25000     -999.25000     -999.25000     -999.25000     -999.25000
     3920.79360     3491.23000       10.40000     -999.25000     1345.40000      782.73000      420.23000       68.33000       75.70000        1.10000     -999.25000     -999.25000     -999.25000     -999.25000     -999.25000     -999.25000     -999.25000
     3920.94600     3491.24000       10.30000     -999.25000      895.92000      726.86000      328.44000       67.53000       75.70000        1.10000     -999.25000     -999.25000     -999.25000     -999.25000     -999.25000     -999.25000     -999.25000
     3921.09840     3491.25000       10.00000     -999.25000      359.07000      392.86000      143.39000       51.21000       75.70000        1.10000     -999.25000     -999.25000     -999.25000     -999.25000     -999.25000     -999.25000     -999.25000
     3921.25080     3491.26000       11.10000     -999.25000      484.29000      312.12000       99.46000       48.12000       75.70000        1.10000     -999.25000     -999.25000     -999.25000     -999.25000     -999.25000     -999.25000     -999.25000
     3921.40320     3491.27000       11.40000     -999.25000     1841.51000      758.37000      159.40000       60.39000       75.70000        1.10000     -999.25000     -999.25000     -999.25000     -999.25000     -999.25000     -999.25000     -999.25000
     3921.55560     3491.28000       10.80000     -999.25000     1032.97000      757.99000      339.53000       67.76000       75.70000        1.11000     -999.25000     -999.25000     -999.25000     -999.25000     -999.25000     -999.25000     -999.25000
     3921.70800     3491.29000       10.70000     -999.25000      198.62000      154.83000       79.16000       31.66000       75.70000        1.12000     -999.25000     -999.25000     -999.25000     -999.25000     -999.25000     -999.25000     -999.25000
     3921.86040     3491.30000        8.40000     -999.25000      129.99000       79.89000       40.83000       17.96000       75.70000        1.14000     -999.25000     -999.25000     -999.25000     -999.25000     -999.25000     -999.25000     -999.25000
