~VERSION
 VERS.        2.0                                          :CWLS Log ASCII Standard - VERSION 2.0
 WRAP.        NO                                           :One Line per depth step
 CREA.        20001106 21.27                               :LAS Creation date <yyyymmdd hh.mm>
#--------------------------------------------------
~WELL
#MNEM.UNIT      DATA             DESCRIPTION
#---- ------ --------------   -----------------------------
 STRT.M       3055.46760                                                                                     :START DEPTH
 STOP.M       3510.83880                                                                                     :STOP DEPTH
 STEP.M       0.15240                                                                                        :STEP
 NULL.        -999.25000                                                                                     :NULL VALUE
 COMP.        PANCANADIAN PETROLEUM LTD.                                                                     :COMPANY
 WELL.        PANCANADIAN PANUKE M-79                                                                        :WELL
  FLD.        PANUKE                                                                                         :FIELD
  LOC.        LAT 43 48' 32.10" N (NAD 27)                                                                   :LOCATION
 PROV.        NOVA SCOTIA                                                                                    :PROVINCE
 CTRY.        CANADA                                                                                         :COUNTRY
 SRVC.        Schlumberger                                                                                   :SERVICE COMPANY
 DATE.        06-Nov-2000                                                                                    :LOG DATE
  UWI.        300M794350060301                                                                               :UNIQUE WELL ID
 LATI.DEG     43 48' 32.10" N                                                                                :LATITUDE
 LONG.DEG     60 41' 59.81" W                                                                                :LONGITUDE
#--------------------------------------------------
~CURVE
#MNEM.UNIT    VALUE                                        :DESCRIPTION
#----.----    ---------------                              :-------------------
 DEPT.M       00 001 00 00                                 :Depth Index
   CS.F/HR                                                 :CABLE SPEED
 TENS.LBF                                                  :CABLE TENSION
 HTHO.PPM                                                  :HNGS FORMATION THORIUM CONCENTRATION
 HURA.PPM                                                  :HNGS FORMATION URANIUM CONCENTRATION
  HFK.                                                     :HNGS FORMATION POTASSIUM CONCENTRATION
 HSGR.GAPI                                                 :HNGS STANDARD GAMMA RAY
 HCGR.GAPI                                                 :HNGS COMPUTED GAMMA RAY
 HTPR.                                                     :HNGS THORIUM/POTASSIUM RATIO
 HTUR.                                                     :HNGS THORIUM/URANIUM RATIO
 HUPR.                                                     :HNGS URANIUM/POTASSIUM RATIO
 S2TM.DEGC                                                 :HNGS DETECTOR 2 TEMPERATURE
   DF.LBF                                                  :UNCALIBRATED DOWNHOLE FORCE
~PARAMETER
#MNEM.UNIT    VALUE                                        :DESCRIPTION
#----.----    ---------------                              :-------------------
 PDAT.        MEAN SEA LEVEL                               :PERMANENT DATUM
  EPD.M       0.000000                                     :ELEVATION OF PERMANENT DATUM ABOVE MEAN SEA LEVEL
  LMF.        DRILL FLOOR                                  :LOGGING MEASURED FROM (NAME OF LOGGING ELEVATION REFERENCE)
  APD.M       47.020000                                    :ELEVATION OF DEPTH REFERENCE (LMF) ABOVE PERMANENT DATUM
~A        DEPTH             CS           TENS           HTHO           HURA            HFK           HSGR           HCGR           HTPR           HTUR           HUPR           S2TM             DF
# ...
     3236.67120     2003.89900     4745.00000        6.97000        2.67800        0.01000       54.91600       37.30200        7.32800        2.60200        2.81600       15.98800      928.92100
     3236.82360     2004.45600     4781.00000        7.82200        2.57100        0.01000       57.84300       41.25400        7.56700        3.04300        2.48700       15.98800      928.21000
     3236.97600     2005.09300     4836.00000        7.08800        2.64800        0.00900       54.86900       37.34600        7.58300        2.67700        2.83300       15.98800      927.85500
     3237.12840     2000.64900     4753.00000        5.92600        2.66400        0.00900       50.97300       32.81300        6.81200        2.22400        3.06200       15.98800      927.85500
     3237.28080     2000.74200     4782.00000        5.31800        2.57100        0.00700       46.53000       28.88800        7.09500        2.06800        3.43100       15.98800      929.27700
     3237.43320     1998.28500     4751.00000        5.67500        2.37200        0.00800       47.60000       31.32000        6.85800        2.39300        2.86600       15.93000      927.85500
     3237.58560     1995.47800     4850.00000        5.91000        2.62600        0.00800       50.10000       31.90800        7.18800        2.25000        3.19400       15.98800      930.34300
     3237.73800     1995.14900     4683.00000        6.26400        2.82900        0.00900       52.98700       33.72700        7.23100        2.21400        3.26500       15.98800      925.36600
     3237.89040     1994.77300     4688.00000        6.27200        2.62500        0.01000       54.07600       35.92600        6.35000        2.38900        2.65700       15.87100      922.87800
     3238.04280     1994.02600     4798.00000        6.40700        2.71600        0.01100       56.79400       37.97800        5.93000        2.35800        2.51400       15.98800      919.32300
     3238.19520     1993.17200     4711.00000        6.37100        2.34900        0.01100       54.84400       37.88000        5.89600        2.71300        2.17400       15.98800      923.58900
     3238.34760     1997.49400     4850.00000        6.09000        2.16800        0.01100       52.51700       36.81900        5.70700        2.80800        2.03200       15.98800      925.72200
     3238.50000     1997.45300     4960.00000        5.23700        2.22300        0.00900       46.88300       31.29100        5.83900        2.35600        2.47900       15.98800      923.23300
     3238.65240     1997.08900     4826.00000        5.58900        2.07700        0.00900       46.07200       31.59100        6.52600        2.69100        2.42500       15.98800      922.87800
     3238.80480     1996.67300     4779.00000        6.07300        2.57300        0.00800       50.50300       32.84300        7.16200        2.36000        3.03400       15.98800      922.87800
     3238.95720     1996.19800     4864.00000        6.64900        2.90000        0.01000       56.27600       36.53100        6.92400        2.29300        3.02000       15.93000      923.23300
     3239.10960     2001.25700     4743.00000        6.63700        3.39500        0.01000       60.17100       36.76100        6.80700        1.95500        3.48100       15.98800      924.30000
     3239.26200     2001.43600     4884.00000        7.26400        2.97300        0.01000       58.67300       38.81700        7.35100        2.44300        3.00800       15.98800      925.72200
     3239.41440     2001.64100     4780.00000        7.37700        2.97200        0.01100       60.82600       40.51300        6.93100        2.48200        2.79200       15.98800      924.65500
     3239.56680     2001.87600     4864.00000        7.07600        3.17300        0.01000       60.28800       38.81100        6.94800        2.23000        3.11600       15.93000      922.16700
     3239.71920     2002.14400     4797.00000        7.10400        3.34900        0.00900       59.40600       37.28900        7.64700        2.12100        3.60500       15.98800      922.16700
     3239.87160     1997.27900     4805.00000        6.13700        2.90500        0.00700       49.07400       30.35400        8.78400        2.11300        4.15800       15.87100      922.16700
     3240.02400     1996.89000     4963.00000        5.05000        2.38600        0.00600       40.00800       24.61400        9.10400        2.11600        4.30200       15.98800      924.30000
     3240.17640     1996.76300     4850.00000        4.29400        2.13500        0.00500       34.86800       20.77500        9.27700        2.01200        4.61200       15.98800      924.30000
     3240.32880     1996.30100     4807.00000        4.41200        2.36700        0.00500       37.28600       21.66400        8.94000        1.86400        4.79700       15.98800      921.81100
     3240.48120     1996.08900     4633.00000        5.00500        2.47600        0.00600       42.13900       25.15600        8.45100        2.02100        4.18000       15.98800      919.32300
     3240.63360     2000.52100     4647.00000        5.19500        2.47200        0.00600       42.63500       25.85500        8.65300        2.10200        4.11700       15.98800      920.74500
     3240.78600     2000.91300     4689.00000        4.68600        2.47900        0.00600       39.95300       23.47800        8.51500        1.89000        4.50600       15.98800      920.03400
     3240.93840     1995.87200     4884.00000        3.70200        2.31200        0.00500       36.78200       20.52200        6.79400        1.60100        4.24300       15.93000      918.25600
     3241.09080     1998.11100     4887.00000        3.39000        2.25500        0.00500       34.64600       19.02100        6.62600        1.50300        4.40700       15.98800      915.05700
     3241.24320     2000.35900     4825.00000        3.49500        2.16400        0.00500       34.54300       19.85700        6.45700        1.61500        3.99800       15.98800      914.70100
     3241.39560     1995.23800     4878.00000        3.53300        2.12700        0.00500       34.13300       19.91300        6.56500        1.66100        3.95100       15.98800      918.96700
     3241.54800     1997.07500     4942.00000        3.38000        2.34100        0.00600       36.39100       20.74200        5.54700        1.44400        3.84200       15.98800      920.74500
     3241.70040     1999.48700     4883.00000        4.04700        2.72200        0.00700       42.41100       23.78500        6.03100        1.48600        4.05700       15.98800      922.16700
     3241.85280     1999.73000     4809.00000        5.16700        3.24600        0.00900       53.11300       30.79200        5.86900        1.59200        3.68700       15.98800      917.54500
     3242.00520     1999.69200     4804.00000        6.42600        3.78000        0.01000       62.19700       37.36400        6.16200        1.70000        3.62400       15.98800      917.54500
     3242.15760     1999.64800     4814.00000        7.44800        3.42600        0.01200       64.91400       42.75700        6.32200        2.17400        2.90800       15.98800      916.47900
     3242.31000     1999.59700     4735.00000        6.92600        2.95400        0.01100       59.82300       40.25400        6.16700        2.34500        2.63000       15.98800      913.99000
     3242.46240     1999.85700     4783.00000        6.22900        2.76700        0.01100       55.19500       37.16600        5.85500        2.25100        2.60100       15.98800      911.50200
     3242.61480     1994.33600     4867.00000        6.07800        2.98900        0.01000       55.47300       36.23400        5.86500        2.03300        2.88500       15.98800      906.88000
     3242.76720     1999.12900     4838.00000        6.78000        3.05000        0.01200       60.86500       41.53600        5.56600        2.22300        2.50400       15.93000      905.81400
