~VERSION
 VERS.        2.0                                          :CWLS Log ASCII Standard - VERSION 2.0
 WRAP.        NO                                           :One Line per depth step
 CREA.        20001106 21.27                               :LAS Creation date <yyyymmdd hh.mm>
#--------------------------------------------------
~WELL
#MNEM.UNIT      DATA             DESCRIPTION
#---- ------ --------------   -----------------------------
 STRT.M       3055.46760                                                                                     :START DEPTH
 STOP.M       3510.83880                                                                                     :STOP DEPTH
 STEP.M       0.15240                                                                                        :STEP
 NULL.        -999.25000                                                                                     :NULL VALUE
 COMP.        PANCANADIAN PETROLEUM LTD.                                                                     :COMPANY
 WELL.        PANCANADIAN PANUKE M-79                                                                        :WELL
  FLD.        PANUKE                                                                                         :FIELD
  LOC.        LAT 43 48' 32.10" N (NAD 27)                                                                   :LOCATION
 PROV.        NOVA SCOTIA                                                                                    :PROVINCE
 CTRY.        CANADA                                                                                         :COUNTRY
 SRVC.        Schlumberger                                                                                   :SERVICE COMPANY
 DATE.        06-Nov-2000                                                                                    :LOG DATE
  UWI.        300M794350060301                                                                               :UNIQUE WELL ID
 LATI.DEG     43 48' 32.10" N                                                                                :LATITUDE
 LONG.DEG     60 41' 59.81" W                                                                                :LONGITUDE
#--------------------------------------------------
~CURVE
#MNEM.UNIT    VALUE                                        :DESCRIPTION
#----.----    ---------------                              :-------------------
 DEPT.M       00 001 00 00                                 :Depth Index
   CS.F/HR                                                 :CABLE SPEED
 TENS.LBF                                                  :CABLE TENSION
 HTHO.PPM                                                  :HNGS FORMATION THORIUM CONCENTRATION
 HURA.PPM                                                  :HNGS FORMATION URANIUM CONCENTRATION
  HFK.                                                     :HNGS FORMATION POTASSIUM CONCENTRATION
 HSGR.GAPI                                                 :HNGS STANDARD GAMMA RAY
 HCGR.GAPI                                                 :HNGS COMPUTED GAMMA RAY
 HTPR.                                                     :HNGS THORIUM/POTASSIUM RATIO
 HTUR.                                                     :HNGS THORIUM/URANIUM RATIO
 HUPR.                                                     :HNGS URANIUM/POTASSIUM RATIO
 S2TM.DEGC                                                 :HNGS DETECTOR 2 TEMPERATURE
   DF.LBF                                                  :UNCALIBRATED DOWNHOLE FORCE
~PARAMETER
#MNEM.UNIT    VALUE                                        :DESCRIPTION
#----.----    ---------------                              :-------------------
 PDAT.        MEAN SEA LEVEL                               :PERMANENT DATUM
  EPD.M       0.000000                                     :ELEVATION OF PERMANENT DATUM ABOVE MEAN SEA LEVEL
  LMF.        DRILL FLOOR                                  :LOGGING MEASURED FROM (NAME OF LOGGING ELEVATION REFERENCE)
  APD.M       47.020000                                    :ELEVATION OF DEPTH REFERENCE (LMF) ABOVE PERMANENT DATUM
~A        DEPTH             CS           TENS           HTHO           HURA            HFK           HSGR           HCGR           HTPR           HTUR           HUPR           S2TM             DF
# ...
     3267.91320     1998.68200     4948.00000        1.90000        1.55800        0.00400       21.56400       12.28000        5.03800        1.22000        4.13000       15.87100      850.35600
     3268.06560     1998.17500     4952.00000        1.87500        1.60100        0.00300       21.28100       11.26000        5.78200        1.17100        4.93600       15.87100      849.28900
     3268.21800     1998.23200     4892.00000        1.85400        1.42200        0.00300       20.03900       11.04000        5.87500        1.30400        4.50700       15.87100      845.73400
     3268.37040     2000.80800     4864.00000        1.46500        1.33900        0.00300       18.25400        9.33000        5.17800        1.09500        4.73100       15.87100      842.17900
     3268.52280     1998.36100     4847.00000        1.35200        1.11000        0.00200       15.46600        7.93100        6.05000        1.21800        4.96700       15.87100      842.17900
     3268.67520     1998.28500     4890.00000        1.25800        0.91800        0.00200       13.13200        6.88500        6.98200        1.37100        5.09400       15.81300      845.37900
     3268.82760     1997.88200     4781.00000        1.31500        0.90800        0.00200       13.19200        7.03400        7.33600        1.44900        5.06400       15.87100      843.24600
     3268.98000     1997.73800     4746.00000        1.72600        1.16300        0.00200       15.54500        8.01900       10.29400        1.48400        6.93400       15.87100      845.37900
     3269.13240     1997.57300     4859.00000        2.09500        1.39100        0.00200       18.48400        9.44700       11.18000        1.50600        7.42300       15.75400      843.60100
     3269.28480     1997.22700     4855.00000        2.29600        1.42900        0.00200       19.72500       10.44400       10.90500        1.60700        6.78800       15.87100      843.60100
     3269.43720     1996.83000     4844.00000        2.04300        1.55600        0.00200       19.61500        9.38800       10.60300        1.31200        8.07900       15.87100      844.31200
     3269.58960     1996.53600     4867.00000        1.67400        1.28800        0.00300       18.05400        9.53400        6.42300        1.30000        4.94100       15.87100      843.60100
     3269.74200     1996.20000     4822.00000        1.39600        1.04600        0.00300       15.36800        8.58500        5.52200        1.33400        4.13800       15.87100      844.31200
     3269.89440     1995.65700     4808.00000        1.13900        1.15400        0.00300       15.60900        7.87200        4.47700        0.98700        4.53400       15.87100      843.60100
     3270.04680     1995.19500     4840.00000        1.18800        1.20200        0.00300       15.87900        8.07100        4.60900        0.98800        4.66600       15.87100      844.31200
     3270.19920     1994.50900     4818.00000        1.25200        1.33000        0.00300       18.37800        9.47600        3.84600        0.94200        4.08300       15.87100      845.73400
     3270.35160     1993.88300     4968.00000        1.07700        1.46200        0.00300       18.58000        8.77000        3.42100        0.73600        4.64500       15.81300      846.80100
     3270.50400     1993.00900     4898.00000        1.05300        1.30000        0.00300       17.34400        8.63500        3.38500        0.81000        4.17900       15.87100      846.80100
     3270.65640     1997.46000     4943.00000        0.94800        1.17300        0.00300       16.11400        8.09300        3.18300        0.80800        3.93900       15.87100      846.44500
     3270.80880     1997.09700     4925.00000        0.78800        1.13600        0.00300       15.25200        7.33000        2.80200        0.69300        4.04100       15.81300      845.37900
     3270.96120     1996.68300     4941.00000        0.83500        1.20700        0.00300       16.37800        7.82900        2.76800        0.69100        4.00400       15.87100      847.15600
     3271.11360     1996.36700     4892.00000        0.94200        1.17600        0.00300       16.87000        8.24100        3.06900        0.80100        3.83200       15.87100      849.28900
     3271.26600     1995.69000     4915.00000        1.12000        1.39700        0.00300       18.94100        8.77200        3.63900        0.80200        4.53900       15.75400      852.48900
     3271.41840     1996.18100     4898.00000        1.95200        1.30200        0.00300       20.43300       11.31200        6.20500        1.50000        4.13700       15.87100      852.84400
     3271.57080     1995.15800     4878.00000        2.06800        1.33300        0.00400       21.65300       12.40500        5.79300        1.55100        3.73400       15.87100      850.00000
     3271.72320     1993.99000     4853.00000        2.25300        1.36500        0.00400       23.09900       13.36800        5.92000        1.65000        3.58700       15.87100      851.42200
     3271.87560     1993.60600     4831.00000        2.07700        1.33500        0.00400       23.15000       13.54000        4.96000        1.55600        3.18800       15.81300      850.71100
     3272.02800     1992.69300     4885.00000        2.02200        1.34900        0.00400       22.96100       13.39700        4.82000        1.49900        3.21500       15.87100      850.00000
     3272.18040     1991.49000     4896.00000        1.71200        1.25800        0.00300       19.82300       11.08700        5.02200        1.36100        3.69000       15.87100      849.28900
     3272.33280     1990.43300     4860.00000        1.32200        1.06700        0.00300       16.58700        9.11000        4.49600        1.23900        3.62800       15.81300      849.28900
     3272.48520     1988.90800     4872.00000        1.11800        0.87200        0.00300       14.23600        7.89500        4.31100        1.28100        3.36500       15.87100      850.00000
     3272.63760     1992.77300     4983.00000        1.11000        0.84700        0.00300       14.22100        7.85900        4.29500        1.31100        3.27700       15.87100      850.00000
     3272.79000     1991.89900     4868.00000        1.20100        1.05700        0.00300       15.76400        8.54400        4.25700        1.13600        3.74600       15.87100      850.71100
     3272.94240     1990.26500     4985.00000        1.17700        1.15500        0.00300       16.24500        8.13700        4.47000        1.01900        4.38600       15.75400      849.64500
     3273.09480     1994.78100     4892.00000        0.57000        1.42000        0.00200       16.18000        5.86500        2.42500        0.40100        6.04400       15.87100      850.35600
     3273.24720     1994.19400     4992.00000        0.59700        1.46000        0.00200       16.04700        5.67400        2.72000        0.40900        6.64800       15.87100      848.57800
     3273.39960     1993.52300     5014.00000        0.71300        1.68300        0.00300       18.51800        6.67400        2.77500        0.42300        6.55300       15.87100      849.64500
     3273.55200     1992.59800     4984.00000        0.81200        1.82900        0.00200       18.86100        6.12500        3.86400        0.44400        8.70500       15.81300      849.28900
     3273.70440     1996.83700     4938.00000        0.75500        1.91200        0.00200       19.31300        5.81400        3.74100        0.39500        9.46600       15.87100      849.64500
     3273.85680     1993.66100     4944.00000        0.91900        1.63500        0.00200       17.42700        5.62500        5.57200        0.56200        9.91200       15.87100      847.86700
     3274.00920     1995.58400     5015.00000        0.82000        1.52700        0.00200       16.23700        5.10200        5.40800        0.53700       10.06700       15.75400      847.86700
