~VERSION
 VERS.        2.0                                          :CWLS Log ASCII Standard - VERSION 2.0
 WRAP.        NO                                           :One Line per depth step
 CREA.        20001106 21.27                               :LAS Creation date <yyyymmdd hh.mm>
#--------------------------------------------------
~WELL
#MNEM.UNIT      DATA             DESCRIPTION
#---- ------ --------------   -----------------------------
 STRT.M       3055.46760                                                                                     :START DEPTH
 STOP.M       3510.83880                                                                                     :STOP DEPTH
 STEP.M       0.15240                                                                                        :STEP
 NULL.        -999.25000                                                                                     :NULL VALUE
 COMP.        PANCANADIAN PETROLEUM LTD.                                                                     :COMPANY
 WELL.        PANCANADIAN PANUKE M-79                                                                        :WELL
  FLD.        PANUKE                                                                                         :FIELD
  LOC.        LAT 43 48' 32.10" N (NAD 27)                                                                   :LOCATION
 PROV.        NOVA SCOTIA                                                                                    :PROVINCE
 CTRY.        CANADA                                                                                         :COUNTRY
 SRVC.        Schlumberger                                                                                   :SERVICE COMPANY
 DATE.        06-Nov-2000                                                                                    :LOG DATE
  UWI.        300M794350060301                                                                               :UNIQUE WELL ID
 LATI.DEG     43 48' 32.10" N                                                                                :LATITUDE
 LONG.DEG     60 41' 59.81" W                                                                                :LONGITUDE
#--------------------------------------------------
~CURVE
#MNEM.UNIT    VALUE                                        :DESCRIPTION
#----.----    ---------------                              :-------------------
 DEPT.M       00 001 00 00                                 :Depth Index
   CS.F/HR                                                 :CABLE SPEED
 TENS.LBF                                                  :CABLE TENSION
 HTHO.PPM                                                  :HNGS FORMATION THORIUM CONCENTRATION
 HURA.PPM                                                  :HNGS FORMATION URANIUM CONCENTRATION
  HFK.                                                     :HNGS FORMATION POTASSIUM CONCENTRATION
 HSGR.GAPI                                                 :HNGS STANDARD GAMMA RAY
 HCGR.GAPI                                                 :HNGS COMPUTED GAMMA RAY
 HTPR.                                                     :HNGS THORIUM/POTASSIUM RATIO
 HTUR.                                                     :HNGS THORIUM/URANIUM RATIO
 HUPR.                                                     :HNGS URANIUM/POTASSIUM RATIO
 S2TM.DEGC                                                 :HNGS DETECTOR 2 TEMPERATURE
   DF.LBF                                                  :UNCALIBRATED DOWNHOLE FORCE
~PARAMETER
#MNEM.UNIT    VALUE                                        :DESCRIPTION
#----.----    ---------------                              :-------------------
 PDAT.        MEAN SEA LEVEL                               :PERMANENT DATUM
  EPD.M       0.000000                                     :ELEVATION OF PERMANENT DATUM ABOVE MEAN SEA LEVEL
  LMF.        DRILL FLOOR                                  :LOGGING MEASURED FROM (NAME OF LOGGING ELEVATION REFERENCE)
  APD.M       47.020000                                    :ELEVATION OF DEPTH REFERENCE (LMF) ABOVE PERMANENT DATUM
~A        DEPTH             CS           TENS           HTHO           HURA            HFK           HSGR           HCGR           HTPR           HTUR           HUPR           S2TM             DF
# ...
     3386.63280     2075.87200     4978.00000        1.35600        1.12200        0.00300       17.34000        9.88900        4.08700        1.20900        3.37900       15.57900      689.31400
     3386.78520     2075.83600     4931.00000        1.30100        0.99900        0.00300       15.53100        9.04000        4.43000        1.30100        3.40400       15.57900      690.73600
     3386.93760     2075.79400     4896.00000        1.19900        1.08600        0.00300       16.43700        9.16500        3.78100        1.10300        3.42700       15.52100      690.73600
     3387.09000     2078.62700     4961.00000        1.35000        1.12200        0.00300       16.34500        8.84600        4.91700        1.20400        4.08500       15.52100      695.35800
     3387.24240     2075.87300     4986.00000        1.44100        0.94300        0.00300       16.05600        9.56900        4.79700        1.52800        3.13900       15.52100      691.80300
     3387.39480     2075.83700     5026.00000        1.36500        0.95400        0.00300       16.48000        9.79000        4.20000        1.43100        2.93500       15.52100      695.00200
     3387.54720     2076.13800     5084.00000        2.09900        0.77000        0.00300       16.05300       11.10200        7.51700        2.72600        2.75700       15.52100      691.44700
     3387.69960     2075.62500     4873.00000        2.24500        0.75200        0.00300       17.11600       12.13000        7.17600        2.98600        2.40300       15.52100      696.42400
     3387.85200     2078.43400     5006.00000        2.63100        0.55100        0.00300       17.14700       13.82700        7.62700        4.77200        1.59800       15.57900      697.13500
     3388.00440     2075.82700     4867.00000        3.09000        0.57700        0.00400       19.78800       15.82800        8.08200        5.35600        1.50900       15.57900      697.84600
     3388.15680     2075.78500     4993.00000        2.92200        0.79500        0.00400       20.22200       14.91100        8.15400        3.67500        2.21900       15.63800      697.84600
     3388.30920     2075.73600     4867.00000        3.06800        0.76800        0.00400       20.74700       15.86600        7.91000        3.99700        1.97900       15.52100      695.71300
     3388.46160     2075.51000     4896.00000        2.87600        0.91500        0.00300       20.03000       14.05500        9.04500        3.14200        2.87800       15.57900      697.84600
     3388.61400     2075.42200     4907.00000        2.77400        0.88500        0.00300       19.10700       13.68000        8.84100        3.13500        2.82000       15.52100      697.84600
     3388.76640     2075.32100     4913.00000        3.10500        0.85700        0.00300       20.15200       14.87200        9.51100        3.62200        2.62500       15.52100      696.06900
     3388.91880     2075.20700     4884.00000        2.94600        1.05500        0.00300       19.99200       13.67300       10.31800        2.79200        3.69600       15.57900      699.62400
     3389.07120     2075.07500     4929.00000        3.19500        1.13400        0.00300       20.84000       14.13000       11.81300        2.81700        4.19300       15.46200      701.04600
     3389.22360     2077.63700     4957.00000        2.46700        1.26600        0.00300       20.66200       12.74800        7.92000        1.94900        4.06400       15.52100      701.40100
     3389.37600     2080.56500     4791.00000        2.69300        1.27800        0.00400       22.00200       14.20000        7.57100        2.10800        3.59300       15.46200      701.04600
     3389.52840     2078.43700     4932.00000        2.12900        1.41500        0.00300       21.55300       12.33100        6.21000        1.50500        4.12600       15.63800      699.97900
     3389.68080     2078.76800     4922.00000        1.98200        1.44100        0.00400       21.79900       12.06700        5.63300        1.37600        4.09500       15.52100      703.17900
     3389.83320     2079.14500     4911.00000        1.88500        1.39300        0.00300       20.33500       11.26700        5.83300        1.35300        4.31200       15.63800      698.55700
     3389.98560     2079.57600     5095.00000        1.77700        1.10000        0.00300       17.90800       10.42300        6.05700        1.61600        3.74900       15.57900      699.62400
     3390.13800     2082.78100     4925.00000        1.40500        0.83200        0.00300       14.85300        9.21500        4.90300        1.68800        2.90500       15.63800      697.13500
     3390.29040     2083.73200     4848.00000        1.27500        0.79100        0.00200       13.62900        7.92700        5.40800        1.61100        3.35800       15.46200      693.93600
     3390.44280     2084.64800     4910.00000        1.07100        0.82400        0.00300       13.91300        7.72100        4.16200        1.29900        3.20400       15.52100      697.13500
     3390.59520     2085.86500     4859.00000        1.07500        0.78200        0.00300       15.03100        8.60700        3.51100        1.37500        2.55400       15.63800      699.62400
     3390.74760     2081.32500     4948.00000        1.16100        0.78100        0.00300       15.44300        8.79100        3.83900        1.48700        2.58200       15.52100      699.97900
     3390.90000     2079.13200     4901.00000        0.97000        1.02100        0.00300       15.78400        7.59900        3.63700        0.95000        3.82900       15.63800      704.95600
     3391.05240     2079.56100     4920.00000        0.91000        1.23800        0.00200       16.33700        6.83900        3.88600        0.73500        5.28600       15.57900      705.66700
     3391.20480     2077.29000     4878.00000        0.89900        1.16200        0.00300       16.55200        7.77100        3.12600        0.77400        4.03900       15.63800      702.11200
     3391.35720     2077.45700     5069.00000        1.19600        1.17900        0.00300       16.49000        8.19900        4.54000        1.01500        4.47400       15.46200      703.53400
     3391.50960     2077.47600     4992.00000        1.16000        1.04300        0.00200       14.92400        7.48500        5.05400        1.11300        4.54300       15.52100      700.69100
     3391.66200     2077.66900     5052.00000        0.99400        1.03200        0.00200       13.64000        6.54100        4.87900        0.96400        5.06300       15.52100      703.17900
     3391.81440     2077.71900     4952.00000        1.34700        1.06800        0.00200       15.45400        8.04900        5.84100        1.26100        4.63100       15.52100      698.55700
     3391.96680     2078.11700     5038.00000        2.00000        1.12500        0.00300       19.20900       11.63800        6.14800        1.77700        3.46100       15.57900      699.97900
     3392.11920     2081.11400     5054.00000        1.93900        1.39000        0.00300       20.79000       11.86300        5.58000        1.39500        3.99900       15.40400      699.97900
     3392.27160     2079.06400     5023.00000        2.21600        1.55400        0.00300       21.66100       11.92800        7.23700        1.42600        5.07400       15.52100      701.40100
     3392.42400     2079.48400     5034.00000        2.03200        1.51500        0.00300       20.81300       11.56100        6.44000        1.34100        4.80100       15.46200      697.49100
     3392.57640     2079.96400     5006.00000        2.15700        1.27400        0.00300       19.91400       12.12200        6.60400        1.69300        3.90100       15.52100      697.84600
     3392.72880     2080.34100     5020.00000        1.84900        1.07700        0.00300       17.28600       10.59100        6.35100        1.71700        3.69800       15.52100      696.42400
