~VERSION
 VERS.        2.0                                          :CWLS Log ASCII Standard - VERSION 2.0
 WRAP.        NO                                           :One Line per depth step
 CREA.        20001106 21.27                               :LAS Creation date <yyyymmdd hh.mm>
#--------------------------------------------------
~WELL
#MNEM.UNIT      DATA             DESCRIPTION
#---- ------ --------------   -----------------------------
 STRT.M       3055.46760                                                                                     :START DEPTH
 STOP.M       3510.83880                                                                                     :STOP DEPTH
 STEP.M       0.15240                                                                                        :STEP
 NULL.        -999.25000                                                                                     :NULL VALUE
 COMP.        PANCANADIAN PETROLEUM LTD.                                                                     :COMPANY
 WELL.        PANCANADIAN PANUKE M-79                                                                        :WELL
  FLD.        PANUKE                                                                                         :FIELD
  LOC.        LAT 43 48' 32.10" N (NAD 27)                                                                   :LOCATION
 PROV.        NOVA SCOTIA                                                                                    :PROVINCE
 CTRY.        CANADA                                                                                         :COUNTRY
 SRVC.        Schlumberger                                                                                   :SERVICE COMPANY
 DATE.        06-Nov-2000                                                                                    :LOG DATE
  UWI.        300M794350060301                                                                               :UNIQUE WELL ID
 LATI.DEG     43 48' 32.10" N                                                                                :LATITUDE
 LONG.DEG     60 41' 59.81" W                                                                                :LONGITUDE
#--------------------------------------------------
~CURVE
#MNEM.UNIT    VALUE                                        :DESCRIPTION
#----.----    ---------------                              :-------------------
 DEPT.M       00 001 00 00                                 :Depth Index
   CS.F/HR                                                 :CABLE SPEED
 TENS.LBF                                                  :CABLE TENSION
 HTHO.PPM                                                  :HNGS FORMATION THORIUM CONCENTRATION
 HURA.PPM                                                  :HNGS FORMATION URANIUM CONCENTRATION
  HFK.                                                     :HNGS FORMATION POTASSIUM CONCENTRATION
 HSGR.GAPI                                                 :HNGS STANDARD GAMMA RAY
 HCGR.GAPI                                                 :HNGS COMPUTED GAMMA RAY
 HTPR.                                                     :HNGS THORIUM/POTASSIUM RATIO
 HTUR.                                                     :HNGS THORIUM/URANIUM RATIO
 HUPR.                                                     :HNGS URANIUM/POTASSIUM RATIO
 S2TM.DEGC                                                 :HNGS DETECTOR 2 TEMPERATURE
   DF.LBF                                                  :UNCALIBRATED DOWNHOLE FORCE
~PARAMETER
#MNEM.UNIT    VALUE                                        :DESCRIPTION
#----.----    ---------------                              :-------------------
 PDAT.        MEAN SEA LEVEL                               :PERMANENT DATUM
  EPD.M       0.000000                                     :ELEVATION OF PERMANENT DATUM ABOVE MEAN SEA LEVEL
  LMF.        DRILL FLOOR                                  :LOGGING MEASURED FROM (NAME OF LOGGING ELEVATION REFERENCE)
  APD.M       47.020000                                    :ELEVATION OF DEPTH REFERENCE (LMF) ABOVE PERMANENT DATUM
~A        DEPTH             CS           TENS           HTHO           HURA            HFK           HSGR           HCGR           HTPR           HTUR           HUPR           S2TM             DF
# ...
     3117.95160     2068.13100     4629.00000        7.39900        1.77900        0.00400       38.07500       29.53600       16.48800        4.16000        3.96400       16.33800      929.98800
     3118.10400     2070.03600     4567.00000        6.88100        1.88800        0.00500       37.43500       28.37800       14.70300        3.64500        4.03400       16.33800      934.61000
     3118.25640     2071.54200     4567.00000        6.82500        1.88900        0.00500       37.99600       28.91000       13.46600        3.61300        3.72700       16.33800      932.83200
     3118.40880     2071.22900     4612.00000        7.53400        1.42100        0.00500       35.50900       30.05700       16.52800        5.30400        3.11600       16.22200      927.85500
     3118.56120     2070.18700     4528.00000        6.94500        1.55800        0.00500       35.21500       28.76600       14.49400        4.45800        3.25100       16.33800      929.98800
     3118.71360     2069.68000     4545.00000        6.79600        1.37400        0.00500       34.72800       28.92200       13.27300        4.94500        2.68400       16.33800      925.36600
     3118.86600     2068.41700     4519.00000        6.16000        1.86300        0.00600       37.98700       28.10600       10.81300        3.30600        3.27100       16.33800      930.34300
     3119.01840     2067.65800     4558.00000        7.22200        1.31300        0.00600       38.24500       32.62700       11.11400        5.49900        2.02100       16.33800      932.47600
     3119.17080     2063.33700     4641.00000        7.52700        1.20100        0.00700       38.94300       33.71700       11.38200        6.26700        1.81600       16.33800      927.85500
     3119.32320     2064.22200     4599.00000        7.38100        1.27100        0.00600       38.30500       32.45000       12.02100        5.80700        2.07000       16.33800      928.92100
     3119.47560     2062.52200     4586.00000        6.71200        1.36600        0.00700       39.00900       31.80700        9.77400        4.91500        1.98900       16.28000      924.65500
     3119.62800     2063.62600     4664.00000        7.13900        1.30300        0.00800       40.63000       34.26900        9.45800        5.48000        1.72600       16.33800      927.14400
     3119.78040     2064.55200     4594.00000        6.49600        1.30000        0.00700       38.75000       32.17400        8.75200        4.99600        1.75200       16.33800      930.34300
     3119.93280     2062.89900     4512.00000        6.97200        1.07800        0.00800       38.40600       33.70700        9.29000        6.46500        1.43700       16.28000      925.72200
     3120.08520     2066.71300     4508.00000        5.73300        1.31500        0.00800       37.58600       30.65500        7.33900        4.36100        1.68300       16.33800      926.07700
     3120.23760     2065.02600     4658.00000        5.88800        1.41800        0.00800       38.55900       30.92200        7.63700        4.15300        1.83900       16.33800      929.63200
     3120.39000     2066.48800     4619.00000        5.92100        1.52300        0.00700       38.68400       30.40700        8.03700        3.88700        2.06800       16.33800      929.98800
     3120.54240     2068.15800     4640.00000        5.73400        1.47200        0.00700       38.09400       29.92400        7.74700        3.89600        1.98900       16.28000      928.92100
     3120.69480     2066.67800     4564.00000        3.95700        2.15300        0.00700       38.14400       24.60900        5.40800        1.83800        2.94200       16.33800      927.85500
     3120.84720     2071.03200     4659.00000        3.81700        2.06300        0.00700       35.76400       23.05300        5.71700        1.85000        3.09000       16.33800      926.43300
     3120.99960     2069.96200     4560.00000        4.12600        2.12600        0.00700       37.61100       24.60600        5.85900        1.94000        3.02000       16.33800      926.78800
     3121.15200     2072.12900     4570.00000        4.66800        2.03000        0.00800       39.07300       27.61700        5.95200        2.29900        2.58900       16.28000      926.43300
     3121.30440     2074.60500     4514.00000        4.82800        2.15600        0.00800       41.64600       28.24000        6.08700        2.23900        2.71900       16.33800      926.43300
     3121.45680     2074.04600     4482.00000        4.80700        2.01200        0.00700       40.06400       27.37500        6.42600        2.38900        2.69000       16.33800      924.65500
     3121.60920     2070.63800     4548.00000        4.31100        1.96300        0.00700       36.85100       24.35700        6.52800        2.19500        2.97400       16.22200      929.98800
     3121.76160     2067.44000     4590.00000        3.88700        1.73200        0.00600       33.09400       21.88300        6.57900        2.24500        2.93100       16.33800      929.27700
     3121.91400     2065.85700     4502.00000        3.91400        1.68900        0.00500       31.99300       21.12500        7.19400        2.31800        3.10400       16.33800      925.36600
     3122.06640     2064.39000     4622.00000        4.15400        1.92100        0.00600       35.85700       23.32800        6.61300        2.16200        3.05800       16.33800      921.81100
     3122.21880     2062.71400     4584.00000        4.34700        2.09100        0.00700       38.25000       25.00700        6.29400        2.07900        3.02700       16.33800      922.16700
     3122.37120     2060.79800     4538.00000        4.56700        2.14900        0.00600       38.19200       24.57400        7.24100        2.12500        3.40800       16.33800      924.30000
     3122.52360     2061.32000     4537.00000        4.29500        2.17800        0.00600       37.03800       23.01800        7.30200        1.97200        3.70300       16.33800      925.72200
     3122.67600     2062.25200     4638.00000        4.53200        2.16400        0.00700       39.46000       25.17600        6.76400        2.09500        3.22900       16.22200      928.92100
     3122.82840     2059.92800     4537.00000        4.19800        2.85600        0.00600       42.57100       22.88400        7.03900        1.47000        4.78900       16.33800      926.78800
     3122.98080     2063.31800     4551.00000        4.28300        3.07300        0.00600       42.55200       22.72100        7.46900        1.39400        5.35800       16.33800      927.49900
     3123.13320     2064.53600     4560.00000        3.85000        3.11000        0.00600       41.08200       21.17700        6.90700        1.23800        5.57900       16.22200      923.94400
     3123.28560     2065.59200     4622.00000        3.24300        3.14100        0.00500       39.32000       19.08800        6.01300        1.03200        5.82400       16.33800      928.92100
     3123.43800     2069.46200     4598.00000        3.36600        3.43400        0.00500       41.28600       19.37500        6.28700        0.98000        6.41400       16.33800      928.21000
     3123.59040     2068.85200     4618.00000        3.29400        3.26300        0.00600       41.64200       20.52900        5.38600        1.00900        5.33600       16.33800      929.27700
     3123.74280     2073.18700     4609.00000        3.25500        3.20700        0.00600       41.22100       20.06900        5.49700        1.01500        5.41500       16.33800      927.85500
     3123.89520     2072.76700     4596.00000        3.28100        3.15400        0.00600       40.55400       19.52000        5.88800        1.04000        5.66100       16.33800      923.58900
     3124.04760     2072.28700     4563.00000        4.25500        2.72400        0.00500       39.97600       22.08100        7.84500        1.56200        5.02300       16.33800      930.34300
