~VERSION
 VERS.        2.0                                          :CWLS Log ASCII Standard - VERSION 2.0
 WRAP.        NO                                           :One Line per depth step
 CREA.        20001106 21.27                               :LAS Creation date <yyyymmdd hh.mm>
#--------------------------------------------------
~WELL
#MNEM.UNIT      DATA             DESCRIPTION
#---- ------ --------------   -----------------------------
 STRT.M       3055.46760                                                                                     :START DEPTH
 STOP.M       3510.83880                                                                                     :STOP DEPTH
 STEP.M       0.15240                                                                                        :STEP
 NULL.        -999.25000                                                                                     :NULL VALUE
 COMP.        PANCANADIAN PETROLEUM LTD.                                                                     :COMPANY
 WELL.        PANCANADIAN PANUKE M-79                                                                        :WELL
  FLD.        PANUKE                                                                                         :FIELD
  LOC.        LAT 43 48' 32.10" N (NAD 27)                                                                   :LOCATION
 PROV.        NOVA SCOTIA                                                                                    :PROVINCE
 CTRY.        CANADA                                                                                         :COUNTRY
 SRVC.        Schlumberger                                                                                   :SERVICE COMPANY
 DATE.        06-Nov-2000                                                                                    :LOG DATE
  UWI.        300M794350060301                                                                               :UNIQUE WELL ID
 LATI.DEG     43 48' 32.10" N                                                                                :LATITUDE
 LONG.DEG     60 41' 59.81" W                                                                                :LONGITUDE
#--------------------------------------------------
~CURVE
#MNEM.UNIT    VALUE                                        :DESCRIPTION
#----.----    ---------------                              :-------------------
 DEPT.M       00 001 00 00                                 :Depth Index
   CS.F/HR                                                 :CABLE SPEED
 TENS.LBF                                                  :CABLE TENSION
 HTHO.PPM                                                  :HNGS FORMATION THORIUM CONCENTRATION
 HURA.PPM                                                  :HNGS FORMATION URANIUM CONCENTRATION
  HFK.                                                     :HNGS FORMATION POTASSIUM CONCENTRATION
 HSGR.GAPI                                                 :HNGS STANDARD GAMMA RAY
 HCGR.GAPI                                                 :HNGS COMPUTED GAMMA RAY
 HTPR.                                                     :HNGS THORIUM/POTASSIUM RATIO
 HTUR.                                                     :HNGS THORIUM/URANIUM RATIO
 HUPR.                                                     :HNGS URANIUM/POTASSIUM RATIO
 S2TM.DEGC                                                 :HNGS DETECTOR 2 TEMPERATURE
   DF.LBF                                                  :UNCALIBRATED DOWNHOLE FORCE
~PARAMETER
#MNEM.UNIT    VALUE                                        :DESCRIPTION
#----.----    ---------------                              :-------------------
 PDAT.        MEAN SEA LEVEL                               :PERMANENT DATUM
  EPD.M       0.000000                                     :ELEVATION OF PERMANENT DATUM ABOVE MEAN SEA LEVEL
  LMF.        DRILL FLOOR                                  :LOGGING MEASURED FROM (NAME OF LOGGING ELEVATION REFERENCE)
  APD.M       47.020000                                    :ELEVATION OF DEPTH REFERENCE (LMF) ABOVE PERMANENT DATUM
~A        DEPTH             CS           TENS           HTHO           HURA            HFK           HSGR           HCGR           HTPR           HTUR           HUPR           S2TM             DF
# ...
     3505.35240      973.50200     4929.00000        3.27000        0.13800        0.00500       17.26700       18.19900        6.74200        6.53900        0.28500       15.28200      541.07100
     3505.50480      973.61600     5110.00000        3.27000        0.13800        0.00500       17.26700       18.19900        6.74200        6.53900        0.28500       15.28200      531.11700
     3505.65720      972.45700     5101.00000        3.27000        0.13800        0.00500       17.26700       18.19900        6.74200        6.53900        0.28500       15.28200      548.89200
     3505.80960      971.17000     5076.00000        3.27000        0.13800        0.00500       17.26700       18.19900        6.74200        6.53900        0.28500       15.28200      542.49300
     3505.96200      970.95000     5042.00000        3.27000        0.13800        0.00500       17.26700       18.19900        6.74200        6.53900        0.28500       15.28200      531.47200
     3506.11440      970.66100     5226.00000        3.27000        0.13800        0.00500       17.26700       18.19900        6.74200        6.53900        0.28500       15.28200      542.13700
     3506.26680      969.11800     5156.00000        3.27000        0.13800        0.00500       17.26700       18.19900        6.74200        6.53900        0.28500       15.28200      540.71500
     3506.41920      969.87000     5118.00000        3.27000        0.13800        0.00500       17.26700       18.19900        6.74200        6.53900        0.28500       15.28200      513.69700
     3506.57160      966.90300     5118.00000        3.27000        0.13800        0.00500       17.26700       18.19900        6.74200        6.53900        0.28500       15.28200      477.43600
     3506.72400      966.11000     4932.00000        3.27000        0.13800        0.00500       17.26700       18.19900        6.74200        6.53900        0.28500       15.28200      483.12400
     3506.87640      963.87900     5215.00000        3.27000        0.13800        0.00500       17.26700       18.19900        6.74200        6.53900        0.28500       15.28200      499.47700
     3507.02880      961.36800     5434.00000        3.27000        0.13800        0.00500       17.26700       18.19900        6.74200        6.53900        0.28500       15.28200      546.40300
     3507.18120      959.74700     5398.00000        3.27000        0.13800        0.00500       17.26700       18.19900        6.74200        6.53900        0.28500       15.28200      560.62400
     3507.33360      959.12300     4976.00000        3.27000        0.13800        0.00500       17.26700       18.19900        6.74200        6.53900        0.28500       15.28200      536.09400
     3507.48600      957.22000     5329.00000        3.27000        0.13800        0.00500       17.26700       18.19900        6.74200        6.53900        0.28500       15.28200      563.46700
     3507.63840      956.23500     5382.00000        3.27000        0.13800        0.00500       17.26700       18.19900        6.74200        6.53900        0.28500       15.28200      605.06100
     3507.79080      955.14700     5284.00000        3.27000        0.13800        0.00500       17.26700       18.19900        6.74200        6.53900        0.28500       15.28200      564.17800
     3507.94320      951.38700     5226.00000        3.27000        0.13800        0.00500       17.26700       18.19900        6.74200        6.53900        0.28500       15.28200      527.91700
     3508.09560      950.77600     4965.00000        3.27000        0.13800        0.00500       17.26700       18.19900        6.74200        6.53900        0.28500       15.28200      527.91700
     3508.24800      948.90700     5141.00000        3.27000        0.13800        0.00500       17.26700       18.19900        6.74200        6.53900        0.28500       15.28200      537.51600
     3508.40040      945.46900     5292.00000        3.27000        0.13800        0.00500       17.26700       18.19900        6.74200        6.53900        0.28500       15.28200      554.58000
     3508.55280      942.84300     5174.00000        3.27000        0.13800        0.00500       17.26700       18.19900        6.74200        6.53900        0.28500       15.28200      522.94000
     3508.70520      939.80400     5175.00000        3.27000        0.13800        0.00500       17.26700       18.19900        6.74200        6.53900        0.28500       15.28200      510.49800
     3508.85760      936.36800     5368.00000        3.27000        0.13800        0.00500       17.26700       18.19900        6.74200        6.53900        0.28500       15.28200      543.20400
     3509.01000      932.40400     5124.00000        3.27000        0.13800        0.00500       17.26700       18.19900        6.74200        6.53900        0.28500       15.28200      529.34000
     3509.16240      926.64700     4875.00000        3.27000        0.13800        0.00500       17.26700       18.19900        6.74200        6.53900        0.28500       15.28200      517.25200
     3509.31480      921.33100     5113.00000        3.27000        0.13800        0.00500       17.26700       18.19900        6.74200        6.53900        0.28500       15.28200      531.47200
     3509.46720      913.95400     5171.00000        3.27000        0.13800        0.00500       17.26700       18.19900        6.74200        6.53900        0.28500       15.28200      491.30100
     3509.61960      906.78800     4867.00000        3.27000        0.13800        0.00500       17.26700       18.19900        6.74200        6.53900        0.28500       15.28200      443.30800
     3509.77200      898.63500     4925.00000        3.27000        0.13800        0.00500       17.26700       18.19900        6.74200        6.53900        0.28500       15.28200      399.93700
     3509.92440      890.48800     4752.00000        3.27000        0.13800        0.00500       17.26700       18.19900        6.74200        6.53900        0.28500       15.28200      348.03400
     3510.07680      881.21300     4616.00000        3.27000        0.13800        0.00500       17.26700       18.19900        6.74200        6.53900        0.28500       15.28200      304.30800
     3510.22920      870.61300     4755.00000        3.27000        0.13800        0.00500       17.26700       18.19900        6.74200        6.53900        0.28500       15.28200      262.00300
     3510.38160      859.68300     4521.00000        3.27000        0.13800        0.00500       17.26700       18.19900        6.74200        6.53900        0.28500       15.28200      215.07700
     3510.53400      847.19200     4411.00000        3.27000        0.13800        0.00500       17.26700       18.19900        6.74200        6.53900        0.28500       15.28200      154.28700
     3510.68640      825.40200     4386.00000        3.27000        0.13800        0.00500       17.26700       18.19900        6.74200        6.53900        0.28500       15.28200      111.62700
     3510.83880      805.54900     4192.00000        3.27000        0.13800        0.00500       17.26700       18.19900        6.74200        6.53900        0.28500       15.28200      110.91600
