~VERSION
 VERS.        2.0                                          :CWLS Log ASCII Standard - VERSION 2.0
 WRAP.        NO                                           :One Line per depth step
 CREA.        20001106 21.27                               :LAS Creation date <yyyymmdd hh.mm>
#--------------------------------------------------
~WELL
#MNEM.UNIT      DATA             DESCRIPTION
#---- ------ --------------   -----------------------------
 STRT.M       3055.46760                                                                                     :START DEPTH
 STOP.M       3510.83880                                                                                     :STOP DEPTH
 STEP.M       0.15240                                                                                        :STEP
 NULL.        -999.25000                                                                                     :NULL VALUE
 COMP.        PANCANADIAN PETROLEUM LTD.                                                                     :COMPANY
 WELL.        PANCANADIAN PANUKE M-79                                                                        :WELL
  FLD.        PANUKE                                                                                         :FIELD
  LOC.        LAT 43 48' 32.10" N (NAD 27)                                                                   :LOCATION
 PROV.        NOVA SCOTIA                                                                                    :PROVINCE
 CTRY.        CANADA                                                                                         :COUNTRY
 SRVC.        Schlumberger                                                                                   :SERVICE COMPANY
 DATE.        06-Nov-2000                                                                                    :LOG DATE
  UWI.        300M794350060301                                                                               :UNIQUE WELL ID
 LATI.DEG     43 48' 32.10" N                                                                                :LATITUDE
 LONG.DEG     60 41' 59.81" W                                                                                :LONGITUDE
#--------------------------------------------------
~CURVE
#MNEM.UNIT    VALUE                                        :DESCRIPTION
#----.----    ---------------                              :-------------------
 DEPT.M       00 001 00 00                                 :Depth Index
   CS.F/HR                                                 :CABLE SPEED
 TENS.LBF                                                  :CABLE TENSION
 HTHO.PPM                                                  :HNGS FORMATION THORIUM CONCENTRATION
 HURA.PPM                                                  :HNGS FORMATION URANIUM CONCENTRATION
  HFK.                                                     :HNGS FORMATION POTASSIUM CONCENTRATION
 HSGR.GAPI                                                 :HNGS STANDARD GAMMA RAY
 HCGR.GAPI                                                 :HNGS COMPUTED GAMMA RAY
 HTPR.                                                     :HNGS THORIUM/POTASSIUM RATIO
 HTUR.                                                     :HNGS THORIUM/URANIUM RATIO
 HUPR.                                                     :HNGS URANIUM/POTASSIUM RATIO
 S2TM.DEGC                                                 :HNGS DETECTOR 2 TEMPERATURE
   DF.LBF                                                  :UNCALIBRATED DOWNHOLE FORCE
~PARAMETER
#MNEM.UNIT    VALUE                                        :DESCRIPTION
#----.----    ---------------                              :-------------------
 PDAT.        MEAN SEA LEVEL                               :PERMANENT DATUM
  EPD.M       0.000000                                     :ELEVATION OF PERMANENT DATUM ABOVE MEAN SEA LEVEL
  LMF.        DRILL FLOOR                                  :LOGGING MEASURED FROM (NAME OF LOGGING ELEVATION REFERENCE)
  APD.M       47.020000                                    :ELEVATION OF DEPTH REFERENCE (LMF) ABOVE PERMANENT DATUM
~A        DEPTH             CS           TENS           HTHO           HURA            HFK           HSGR           HCGR           HTPR           HTUR           HUPR           S2TM             DF
# ...
     3205.42920     2006.39100     4772.00000        2.91300        1.50600        0.00300       23.62500       13.75900        9.85900        1.93400        5.09700       16.10500      900.12600
     3205.58160     2002.13300     4707.00000        3.31900        1.47500        0.00400       25.16800       16.12100        9.18100        2.25000        4.08100       16.10500      897.63700
     3205.73400     2002.75500     4730.00000        3.48400        1.41300        0.00400       26.89900       17.69600        8.24500        2.46500        3.34400       16.10500      899.41500
     3205.88640     2000.26200     4799.00000        3.43100        1.30100        0.00400       24.56800       16.57000        9.31800        2.63800        3.53200       16.10500      901.19200
     3206.03880     2000.61700     4658.00000        2.99400        1.25500        0.00300       22.19700       14.32300        9.54000        2.38600        3.99900       16.10500      900.83700
     3206.19120     2003.53400     4679.00000        2.66600        1.24000        0.00200       18.90600       11.71300       12.04000        2.14900        5.60200       16.10500      905.81400
     3206.34360     2004.03900     4826.00000        2.52700        1.02400        0.00200       17.13400       11.34500       11.30900        2.46800        4.58200       16.10500      903.32600
     3206.49600     2004.61600     4890.00000        2.25800        0.87000        0.00200       14.73600        9.84800       12.31100        2.59700        4.74100       16.10500      907.59100
     3206.64840     2005.27500     4782.00000        1.77600        1.04800        0.00100       13.95900        7.58500       13.13700        1.69500        7.75200       16.10500      901.90300
     3206.80080     2006.34600     4809.00000        1.78500        1.05100        0.00100       13.75600        7.46500       14.04900        1.70000        8.26700       15.98800      905.45900
     3206.95320     2007.25300     4812.00000        1.83700        1.34200        0.00100       15.78800        7.78900       13.42400        1.36900        9.80500       16.10500      917.54500
     3207.10560     2003.11800     4774.00000        2.22400        1.23500        0.00200       17.40500        9.83700       11.81600        1.80100        6.55900       16.10500      912.56800
     3207.25800     2003.56300     4704.00000        2.25800        1.11200        0.00200       16.93600        9.94600       11.95800        2.03000        5.88900       16.04600      912.56800
     3207.41040     2004.38900     4611.00000        1.71200        0.97200        0.00200       13.82100        7.67800       11.35600        1.76200        6.44400       16.10500      902.25900
     3207.56280     2005.01600     4653.00000        1.45100        0.67300        0.00100       11.18300        6.78000       10.14300        2.15600        4.70400       16.10500      898.70400
     3207.71520     2005.73200     4782.00000        1.30900        0.60000        0.00100       10.10500        6.23600        9.65100        2.18400        4.41900       16.10500      907.94700
     3207.86760     2006.55100     4760.00000        1.68800        0.43800        0.00200       12.06600        9.04600        7.31000        3.37700        1.89700       16.04600      904.39200
     3208.02000     2002.31600     4742.00000        1.75000        0.51600        0.00200       12.35500        8.89100        8.24700        3.39200        2.43100       16.10500      918.61200
     3208.17240     2002.64700     4786.00000        1.51000        0.67400        0.00200       13.00000        8.65000        6.35200        2.24100        2.83500       16.04600      909.36900
     3208.32480     2003.02500     4734.00000        1.36900        0.67800        0.00300       13.66300        9.28700        4.61900        2.01900        2.28800       16.04600      905.45900
     3208.47720     2003.77400     4713.00000        1.50500        0.76200        0.00400       15.46900       10.71500        4.25400        1.97600        2.15300       16.10500      902.61400
     3208.62960     2004.63000     4753.00000        1.84300        0.97000        0.00400       18.58100       12.63000        4.54200        1.90100        2.39000       15.87100      901.90300
     3208.78200     2002.72900     4635.00000        1.91600        1.18500        0.00400       20.84000       13.61900        4.26700        1.61700        2.63900       15.98800      901.19200
     3208.93440     2000.55700     4792.00000        2.17200        1.25500        0.00500       22.49900       14.71900        4.62900        1.73100        2.67500       16.04600      903.32600
     3209.08680     2000.63600     4810.00000        2.41300        1.18400        0.00500       23.24000       15.94500        4.84200        2.03700        2.37600       15.98800      904.39200
     3209.23920     1998.16500     4811.00000        2.01700        1.15600        0.00500       22.03600       14.89400        4.00200        1.74400        2.29400       16.10500      905.45900
     3209.39160     2000.42000     4743.00000        2.13400        1.06000        0.00500       22.00600       15.31500        4.19500        2.01300        2.08300       16.10500      907.59100
     3209.54400     2000.48000     4846.00000        2.10800        1.21500        0.00400       21.73600       14.12000        4.72400        1.73500        2.72300       16.10500      907.94700
     3209.69640     2000.86500     4710.00000        1.78300        1.22300        0.00500       21.34300       13.55500        3.81500        1.45800        2.61700       16.10500      908.30200
     3209.84880     2001.30600     4692.00000        1.83700        0.99900        0.00400       19.52500       13.19900        4.18700        1.83800        2.27800       16.10500      909.01300
     3210.00120     2001.49300     4818.00000        1.56000        0.74200        0.00300       14.99000       10.39900        4.76600        2.10200        2.26700       16.10500      909.01300
     3210.15360     2001.70600     4652.00000        1.37300        0.55600        0.00300       12.26600        8.73300        5.19200        2.46900        2.10300       15.98800      902.97000
     3210.30600     2007.24600     4673.00000        1.07200        0.55400        0.00200       10.32100        7.00800        4.93800        1.93400        2.55400       16.10500      902.25900
     3210.45840     2006.04200     4723.00000        1.05200        0.60000        0.00200       10.56900        7.03700        4.73900        1.75300        2.70400       16.10500      902.97000
     3210.61080     2004.01900     4808.00000        1.10500        0.60300        0.00200        9.66500        6.38900        6.23300        1.83300        3.40000       16.04600      904.03600
     3210.76320     2004.91000     4791.00000        1.04200        0.67500        0.00200        9.91800        6.05200        6.17800        1.54300        4.00300       16.10500      911.14600
     3210.91560     2000.11100     4787.00000        0.95800        0.63500        0.00200        9.98200        6.52100        4.59900        1.51000        3.04500       15.98800      911.50200
     3211.06800     2000.44400     4674.00000        1.28500        0.58800        0.00200       11.06400        8.07700        5.30700        2.18500        2.42900       16.10500      903.32600
     3211.22040     2000.50700     4676.00000        1.21400        0.69500        0.00200       12.03400        7.92100        4.95500        1.74600        2.83800       16.10500      908.30200
     3211.37280     2000.58000     4655.00000        1.18200        0.72000        0.00300       12.21600        8.10100        4.54100        1.64300        2.76400       16.10500      909.72400
     3211.52520     2000.66300     4722.00000        1.11800        0.71300        0.00200       11.51700        7.29400        4.95100        1.56700        3.16000       16.10500      913.99000
