~VERSION
 VERS.        2.0                                          :CWLS Log ASCII Standard - VERSION 2.0
 WRAP.        NO                                           :One Line per depth step
 CREA.        20001106 21.27                               :LAS Creation date <yyyymmdd hh.mm>
#--------------------------------------------------
~WELL
#MNEM.UNIT      DATA             DESCRIPTION
#---- ------ --------------   -----------------------------
 STRT.M       3055.46760                                                                                     :START DEPTH
 STOP.M       3510.83880                                                                                     :STOP DEPTH
 STEP.M       0.15240                                                                                        :STEP
 NULL.        -999.25000                                                                                     :NULL VALUE
 COMP.        PANCANADIAN PETROLEUM LTD.                                                                     :COMPANY
 WELL.        PANCANADIAN PANUKE M-79                                                                        :WELL
  FLD.        PANUKE                                                                                         :FIELD
  LOC.        LAT 43 48' 32.10" N (NAD 27)                                                                   :LOCATION
 PROV.        NOVA SCOTIA                                                                                    :PROVINCE
 CTRY.        CANADA                                                                                         :COUNTRY
 SRVC.        Schlumberger                                                                                   :SERVICE COMPANY
 DATE.        06-Nov-2000                                                                                    :LOG DATE
  UWI.        300M794350060301                                                                               :UNIQUE WELL ID
 LATI.DEG     43 48' 32.10" N                                                                                :LATITUDE
 LONG.DEG     60 41' 59.81" W                                                                                :LONGITUDE
#--------------------------------------------------
~CURVE
#MNEM.UNIT    VALUE                                        :DESCRIPTION
#----.----    ---------------                              :-------------------
 DEPT.M       00 001 00 00                                 :Depth Index
   CS.F/HR                                                 :CABLE SPEED
 TENS.LBF                                                  :CABLE TENSION
 HTHO.PPM                                                  :HNGS FORMATION THORIUM CONCENTRATION
 HURA.PPM                                                  :HNGS FORMATION URANIUM CONCENTRATION
  HFK.                                                     :HNGS FORMATION POTASSIUM CONCENTRATION
 HSGR.GAPI                                                 :HNGS STANDARD GAMMA RAY
 HCGR.GAPI                                                 :HNGS COMPUTED GAMMA RAY
 HTPR.                                                     :HNGS THORIUM/POTASSIUM RATIO
 HTUR.                                                     :HNGS THORIUM/URANIUM RATIO
 HUPR.                                                     :HNGS URANIUM/POTASSIUM RATIO
 S2TM.DEGC                                                 :HNGS DETECTOR 2 TEMPERATURE
   DF.LBF                                                  :UNCALIBRATED DOWNHOLE FORCE
~PARAMETER
#MNEM.UNIT    VALUE                                        :DESCRIPTION
#----.----    ---------------                              :-------------------
 PDAT.        MEAN SEA LEVEL                               :PERMANENT DATUM
  EPD.M       0.000000                                     :ELEVATION OF PERMANENT DATUM ABOVE MEAN SEA LEVEL
  LMF.        DRILL FLOOR                                  :LOGGING MEASURED FROM (NAME OF LOGGING ELEVATION REFERENCE)
  APD.M       47.020000                                    :ELEVATION OF DEPTH REFERENCE (LMF) ABOVE PERMANENT DATUM
~A        DEPTH             CS           TENS           HTHO           HURA            HFK           HSGR           HCGR           HTPR           HTUR           HUPR           S2TM             DF
     3055.46760     2062.18300     4414.00000        3.43900        1.59700        0.00300       25.84600       16.04600       10.18100        2.15400        4.72700       16.45500      911.50200
     3055.62000     2062.18300     4456.00000        3.43900        1.59700        0.00300       25.84600       16.04600       10.18100        2.15400        4.72700       16.45500      915.05700
     3055.77240     2065.56500     4341.00000        3.43900        1.59700        0.00300       25.84600       16.04600       10.18100        2.15400        4.72700       16.45500      913.27900
     3055.92480     2066.76900     4409.00000        3.43900        1.59700        0.00300       25.84600       16.04600       10.18100        2.15400        4.72700       16.45500      910.08000
     3056.07720     2062.67000     4460.00000        3.43900        1.59700        0.00300       25.84600       16.04600       10.18100        2.15400        4.72700       16.39700      907.94700
     3056.22960     2060.74800     4309.00000        3.43900        1.59700        0.00300       25.84600       16.04600       10.18100        2.15400        4.72700       16.45500      897.28200
     3056.38200     2058.55100     4338.00000        3.40900        1.72200        0.00400       27.42900       17.03700        8.56800        1.98000        4.32700       16.33800      909.01300
     3056.53440     2050.10900     4424.00000        3.52500        2.06300        0.00400       29.70900       17.15100        9.14600        1.70900        5.35100       16.45500      910.08000
     3056.68680     2052.09600     4327.00000        3.80200        2.54400        0.00400       33.86000       18.60000        9.02200        1.49400        6.03700       16.45500      910.08000
     3056.83920     2054.03800     4372.00000        4.16000        2.68100        0.00400       36.24600       19.75300        9.72200        1.55200        6.26500       16.45500      915.05700
     3056.99160     2050.88200     4467.00000        4.60500        3.00300        0.00400       40.00300       21.23500       10.50800        1.53400        6.85200       16.45500      915.76800
     3057.14400     2055.91200     4461.00000        4.95800        2.90300        0.00400       40.21600       22.12400       11.50800        1.70800        6.73800       16.45500      911.50200
     3057.29640     2055.39900     4413.00000        4.72900        2.61700        0.00500       39.54700       22.94500        9.20800        1.80700        5.09600       16.45500      910.43500
     3057.44880     2055.48600     4584.00000        4.27900        2.39800        0.00500       36.11500       20.95200        9.00300        1.78500        5.04500       16.39700      908.65800
     3057.60120     2055.24900     4348.00000        4.01800        2.22800        0.00400       32.89400       18.99200        9.84100        1.80400        5.45600       16.45500      912.21300
     3057.75360     2054.97900     4479.00000        3.38700        2.20700        0.00300       29.94700       14.99000       11.78900        1.53400        7.68300       16.45500      909.72400
     3057.90600     2055.00500     4435.00000        3.16100        2.29800        0.00300       29.85500       14.45000       10.76000        1.37600        7.82200       16.45500      906.52500
     3058.05840     2057.36200     4462.00000        3.51600        2.13200        0.00300       29.37100       14.97800       13.23300        1.64900        8.02300       16.45500      902.25900
     3058.21080     2060.38600     4378.00000        3.71400        1.99000        0.00300       29.58000       16.09200       12.55000        1.86600        6.72600       16.45500      899.41500
     3058.36320     2058.13700     4436.00000        3.98800        1.68300        0.00300       28.80600       17.10100       12.95600        2.36900        5.46800       16.45500      909.72400
     3058.51560     2061.27100     4383.00000        4.47500        1.51400        0.00300       28.95400       18.61900       14.27500        2.95600        4.83000       16.45500      910.08000
     3058.66800     2064.85300     4372.00000        4.47300        1.48200        0.00300       27.85000       18.17500       15.47800        3.01800        5.12900       16.45500      907.59100
     3058.82040     2062.90000     4360.00000        3.93300        1.25000        0.00300       23.95100       15.94900       15.59100        3.14700        4.95500       16.45500      909.01300
     3058.97280     2061.01100     4368.00000        4.04000        1.08200        0.00200       22.23500       15.50200       19.23500        3.73300        5.15200       16.45500      910.08000
     3059.12520     2058.85200     4369.00000        4.02700        0.93400        0.00200       20.76300       15.47500       19.11600        4.31000        4.43600       16.45500      910.43500
     3059.27760     2056.38500     4400.00000        4.48100        0.87500        0.00200       22.52300       17.38100       18.41200        5.11900        3.59600       16.45500      915.05700
     3059.43000     2056.27700     4378.00000        4.80000        0.72500        0.00300       22.29000       18.96800       17.13200        6.62400        2.58600       16.45500      912.21300
     3059.58240     2056.48800     4388.00000        5.18500        0.58300        0.00300       23.13300       20.65700       16.61700        8.88900        1.86900       16.33800      907.59100
     3059.73480     2053.34100     4327.00000        4.97100        0.62600        0.00300       23.04300       19.70400       16.92700        7.93600        2.13300       16.45500      907.94700
     3059.88720     2053.13300     4409.00000        4.98700        0.46600        0.00300       22.47000       19.83300       16.72700        9.97500        1.56300       16.45500      902.97000
     3060.03960     2052.56000     4461.00000        4.55400        0.49200        0.00300       20.50800       17.88300       17.53300        9.10700        1.89600       16.45500      911.50200
     3060.19200     2054.56800     4433.00000        3.75100        0.32400        0.00200       16.03700       14.43800       18.99200        7.50300        1.63800       16.45500      915.76800
     3060.34440     2054.53600     4491.00000        2.80600        0.20900        0.00200       12.33800       11.36500       15.65800        5.61300        1.16800       16.45500      913.27900
     3060.49680     2054.49900     4496.00000        2.07200        0.25900        0.00200       10.49700        9.01200       12.41200        4.14400        1.55100       16.45500      912.56800
     3060.64920     2056.78300     4329.00000        2.19400        0.43100        0.00200       12.03500        9.65800       11.96700        4.38700        2.35200       16.45500      907.94700
     3060.80160     2056.73200     4411.00000        2.72600        0.54900        0.00200       15.20600       12.01600       11.92100        4.96900        2.39900       16.33800      901.54800
     3060.95400     2057.00900     4507.00000        3.14700        0.75800        0.00300       18.34100       14.16600       11.23100        4.15400        2.70400       16.45500      917.19000
     3061.10640     2059.65200     4374.00000        4.14800        0.98700        0.00300       23.98100       18.26200       11.97100        4.20500        2.84700       16.45500      920.74500
     3061.25880     2060.01100     4406.00000        4.88000        1.17700        0.00400       28.47400       21.86700       11.37400        4.14600        2.74300       16.33800      926.43300
     3061.41120     2060.75600     4461.00000        5.49400        1.37100        0.00400       31.17200       23.87800       12.43500        4.00800        3.10200       16.45500      917.54500
     3061.56360     2058.21800     4386.00000        4.65200        1.23700        0.00400       28.19400       21.55700       10.37000        3.76000        2.75800       16.45500      907.94700
