~VERSION
 VERS.        2.0                                          :CWLS Log ASCII Standard - VERSION 2.0
 WRAP.        NO                                           :One Line per depth step
 CREA.        20001106 21.27                               :LAS Creation date <yyyymmdd hh.mm>
#--------------------------------------------------
~WELL
#MNEM.UNIT      DATA             DESCRIPTION
#---- ------ --------------   -----------------------------
 STRT.M       3055.46760                                                                                     :START DEPTH
 STOP.M       3510.83880                                                                                     :STOP DEPTH
 STEP.M       0.15240                                                                                        :STEP
 NULL.        -999.25000                                                                                     :NULL VALUE
 COMP.        PANCANADIAN PETROLEUM LTD.                                                                     :COMPANY
 WELL.        PANCANADIAN PANUKE M-79                                                                        :WELL
  FLD.        PANUKE                                                                                         :FIELD
  LOC.        LAT 43 48' 32.10" N (NAD 27)                                                                   :LOCATION
 PROV.        NOVA SCOTIA                                                                                    :PROVINCE
 CTRY.        CANADA                                                                                         :COUNTRY
 SRVC.        Schlumberger                                                                                   :SERVICE COMPANY
 DATE.        06-Nov-2000                                                                                    :LOG DATE
  UWI.        300M794350060301                                                                               :UNIQUE WELL ID
 LATI.DEG     43 48' 32.10" N                                                                                :LATITUDE
 LONG.DEG     60 41' 59.81" W                                                                                :LONGITUDE
#--------------------------------------------------
~CURVE
#MNEM.UNIT    VALUE                                        :DESCRIPTION
#----.----    ---------------                              :-------------------
 DEPT.M       00 001 00 00                                 :Depth Index
   CS.F/HR                                                 :CABLE SPEED
 TENS.LBF                                                  :CABLE TENSION
 HTHO.PPM                                                  :HNGS FORMATION THORIUM CONCENTRATION
 HURA.PPM                                                  :HNGS FORMATION URANIUM CONCENTRATION
  HFK.                                                     :HNGS FORMATION POTASSIUM CONCENTRATION
 HSGR.GAPI                                                 :HNGS STANDARD GAMMA RAY
 HCGR.GAPI                                                 :HNGS COMPUTED GAMMA RAY
 HTPR.                                                     :HNGS THORIUM/POTASSIUM RATIO
 HTUR.                                                     :HNGS THORIUM/URANIUM RATIO
 HUPR.                                                     :HNGS URANIUM/POTASSIUM RATIO
 S2TM.DEGC                                                 :HNGS DETECTOR 2 TEMPERATURE
   DF.LBF                                                  :UNCALIBRATED DOWNHOLE FORCE
~PARAMETER
#MNEM.UNIT    VALUE                                        :DESCRIPTION
#----.----    ---------------                              :-------------------
 PDAT.        MEAN SEA LEVEL                               :PERMANENT DATUM
  EPD.M       0.000000                                     :ELEVATION OF PERMANENT DATUM ABOVE MEAN SEA LEVEL
  LMF.        DRILL FLOOR                                  :LOGGING MEASURED FROM (NAME OF LOGGING ELEVATION REFERENCE)
  APD.M       47.020000                                    :ELEVATION OF DEPTH REFERENCE (LMF) ABOVE PERMANENT DATUM
~A        DEPTH             CS           TENS           HTHO           HURA            HFK           HSGR           HCGR           HTPR           HTUR           HUPR           S2TM             DF
# ...
     3417.87480     2077.49000     4976.00000        2.39700        1.62500        0.00400       24.69000       14.47600        5.72400        1.47600        3.87900       15.52100      696.42400
     3418.02720     2077.68600     4977.00000        1.93000        1.27900        0.00400       20.54100       12.33500        5.14500        1.50900        3.40900       15.52100      698.91300
     3418.17960     2077.90800     5004.00000        1.73200        1.11500        0.00300       17.54000       10.21100        5.99800        1.55300        3.86100       15.52100      691.80300
     3418.33200     2077.99200     5113.00000        1.37700        1.08800        0.00200       15.53200        7.99100        6.18500        1.26500        4.89000       15.52100      691.80300
     3418.48440     2078.25900     5188.00000        1.09300        1.27100        0.00200       15.31900        6.60100        5.72500        0.86000        6.65500       15.52100      676.51600
     3418.63680     2078.56400     4925.00000        1.22100        1.27800        0.00200       16.59000        7.79000        5.16300        0.95600        5.40200       15.46200      687.89200
     3418.78920     2079.08300     5045.00000        1.42800        1.29600        0.00200       16.77200        8.02700        6.60600        1.10200        5.99400       15.52100      688.95900
     3418.94160     2079.33500     4955.00000        1.45500        1.29500        0.00200       16.94200        8.20700        6.56000        1.12300        5.83900       15.46200      701.40100
     3419.09400     2073.68400     5028.00000        1.45600        1.18200        0.00200       16.45900        8.40200        6.25700        1.23200        5.08000       15.40400      696.42400
     3419.24640     2073.33500     5017.00000        1.87400        1.12700        0.00300       17.12200       10.10300        7.22000        1.66400        4.34000       15.52100      695.00200
     3419.39880     2072.93700     5081.00000        1.84200        1.32000        0.00300       18.73600       10.50700        6.41200        1.39600        4.59300       15.52100      685.75900
     3419.55120     2072.48200     4934.00000        1.87400        1.30400        0.00300       19.24800       10.95000        6.10400        1.43700        4.24900       15.52100      684.33700
     3419.70360     2071.96100     4884.00000        1.74400        1.36300        0.00300       18.62500       10.08400        6.23800        1.28000        4.87400       15.52100      686.82600
     3419.85600     2074.07800     5044.00000        1.75200        1.44400        0.00300       19.24000       10.36900        5.95600        1.21400        4.90800       15.46200      687.18100
     3420.00840     2073.78600     4922.00000        2.00700        1.29500        0.00300       18.82700       10.92800        7.06300        1.55000        4.55700       15.46200      690.73600
     3420.16080     2073.28100     4965.00000        2.33000        1.27900        0.00300       19.15700       11.60200        8.65000        1.82200        4.74800       15.52100      690.38100
     3420.31320     2075.75400     4969.00000        2.12300        1.21900        0.00200       17.41100       10.14300        9.58000        1.74200        5.49900       15.52100      685.75900
     3420.46560     2075.70100     4973.00000        1.97300        1.13100        0.00200       16.69400        9.81900        8.65700        1.74400        4.96400       15.52100      682.56000
     3420.61800     2075.64000     5075.00000        1.82600        1.14900        0.00200       15.28300        8.49600       10.27000        1.58900        6.46200       15.52100      678.64900
     3420.77040     2075.40000     5158.00000        2.00600        1.10600        0.00200       15.50800        8.97900       11.41900        1.81400        6.29500       15.52100      686.82600
     3420.92280     2075.29600     5011.00000        1.52000        1.24000        0.00200       15.94700        7.64400        8.45300        1.22600        6.89300       15.52100      694.29100
     3421.07520     2075.17800     5283.00000        1.64500        1.30300        0.00200       16.16900        7.54900       10.66000        1.26300        8.44100       15.52100      691.80300
     3421.22760     2074.87200     5018.00000        2.09500        1.15900        0.00200       16.93900        9.43200       11.23000        1.80700        6.21300       15.40400      687.18100
     3421.38000     2080.23200     4925.00000        2.07500        1.18000        0.00200       16.72700        8.89100       13.00500        1.75800        7.39600       15.52100      683.62600
     3421.53240     2080.81800     5070.00000        1.90400        1.13700        0.00100       16.01300        8.12100       13.20600        1.67500        7.88500       15.52100      677.93800
     3421.68480     2075.55700     5138.00000        1.72500        1.21900        0.00200       16.12800        7.83700       10.95900        1.41500        7.74400       15.46200      679.71600
     3421.83720     2075.64700     5026.00000        1.85900        1.12600        0.00200       17.82100        9.46700        8.19900        1.65000        4.96900       15.52100      688.95900
     3421.98960     2075.57900     5098.00000        2.02500        1.31300        0.00200       19.89300        9.97900        8.87500        1.54300        5.75100       15.52100      683.27100
     3422.14200     2075.33000     5015.00000        2.08700        1.25400        0.00200       19.68400       10.43800        8.55600        1.66400        5.14200       15.52100      685.75900
     3422.29440     2075.21600     5046.00000        1.84400        1.09700        0.00200       17.39600        8.85400        9.46700        1.68100        5.63200       15.52100      683.27100
     3422.44680     2072.32400     5075.00000        1.68600        1.33100        0.00200       18.52100        8.25600        9.01200        1.26700        7.11600       15.52100      678.64900
     3422.59920     2071.78100     5070.00000        1.96200        1.31500        0.00200       19.06000        9.04300       10.53200        1.49300        7.05600       15.52100      685.40400
     3422.75160     2073.53600     4991.00000        2.25800        1.35500        0.00200       21.32400       10.51300       10.25500        1.66700        6.15400       15.46200      676.51600
     3422.90400     2073.33700     5087.00000        2.03800        1.44000        0.00200       21.07300        9.45000       10.35700        1.41500        7.32000       15.52100      680.07100
     3423.05640     2073.11000     4940.00000        2.06000        1.39700        0.00200       21.13400       10.19300        8.78600        1.47500        5.95900       15.52100      664.42900
     3423.20880     2072.50800     5126.00000        2.09600        1.33400        0.00300       21.59800       11.06600        7.55300        1.57100        4.80900       15.52100      674.38300
     3423.36120     2074.70300     4925.00000        2.31100        1.42400        0.00300       22.66900       11.61100        8.46600        1.62300        5.21600       15.40400      654.12000
     3423.51360     2077.54700     5146.00000        2.44700        1.62200        0.00300       24.20700       12.13000        8.74300        1.50900        5.79400       15.52100      663.36300
     3423.66600     2077.75000     5130.00000        2.44900        1.72500        0.00300       25.38800       12.57800        8.04600        1.42000        5.66600       15.52100      663.71800
     3423.81840     2077.98300     4916.00000        2.59600        1.88100        0.00300       26.77900       12.70800        9.01400        1.38000        6.53200       15.40400      669.05100
     3423.97080     2078.24800     5093.00000        2.52300        1.75600        0.00300       25.44100       12.77200        8.32200        1.43700        5.78900       15.40400      661.94100
