~VERSION
 VERS.        2.0                                          :CWLS Log ASCII Standard - VERSION 2.0
 WRAP.        NO                                           :One Line per depth step
 CREA.        20001106 21.27                               :LAS Creation date <yyyymmdd hh.mm>
#--------------------------------------------------
~WELL
#MNEM.UNIT      DATA             DESCRIPTION
#---- ------ --------------   -----------------------------
 STRT.M       3055.46760                                                                                     :START DEPTH
 STOP.M       3510.83880                                                                                     :STOP DEPTH
 STEP.M       0.15240                                                                                        :STEP
 NULL.        -999.25000                                                                                     :NULL VALUE
 COMP.        PANCANADIAN PETROLEUM LTD.                                                                     :COMPANY
 WELL.        PANCANADIAN PANUKE M-79                                                                        :WELL
  FLD.        PANUKE                                                                                         :FIELD
  LOC.        LAT 43 48' 32.10" N (NAD 27)                                                                   :LOCATION
 PROV.        NOVA SCOTIA                                                                                    :PROVINCE
 CTRY.        CANADA                                                                                         :COUNTRY
 SRVC.        Schlumberger                                                                                   :SERVICE COMPANY
 DATE.        06-Nov-2000                                                                                    :LOG DATE
  UWI.        300M794350060301                                                                               :UNIQUE WELL ID
 LATI.DEG     43 48' 32.10" N                                                                                :LATITUDE
 LONG.DEG     60 41' 59.81" W                                                                                :LONGITUDE
#--------------------------------------------------
~CURVE
#MNEM.UNIT    VALUE                                        :DESCRIPTION
#----.----    ---------------                              :-------------------
 DEPT.M       00 001 00 00                                 :Depth Index
   CS.F/HR                                                 :CABLE SPEED
 TENS.LBF                                                  :CABLE TENSION
 HTHO.PPM                                                  :HNGS FORMATION THORIUM CONCENTRATION
 HURA.PPM                                                  :HNGS FORMATION URANIUM CONCENTRATION
  HFK.                                                     :HNGS FORMATION POTASSIUM CONCENTRATION
 HSGR.GAPI                                                 :HNGS STANDARD GAMMA RAY
 HCGR.GAPI                                                 :HNGS COMPUTED GAMMA RAY
 HTPR.                                                     :HNGS THORIUM/POTASSIUM RATIO
 HTUR.                                                     :HNGS THORIUM/URANIUM RATIO
 HUPR.                                                     :HNGS URANIUM/POTASSIUM RATIO
 S2TM.DEGC                                                 :HNGS DETECTOR 2 TEMPERATURE
   DF.LBF                                                  :UNCALIBRATED DOWNHOLE FORCE
~PARAMETER
#MNEM.UNIT    VALUE                                        :DESCRIPTION
#----.----    ---------------                              :-------------------
 PDAT.        MEAN SEA LEVEL                               :PERMANENT DATUM
  EPD.M       0.000000                                     :ELEVATION OF PERMANENT DATUM ABOVE MEAN SEA LEVEL
  LMF.        DRILL FLOOR                                  :LOGGING MEASURED FROM (NAME OF LOGGING ELEVATION REFERENCE)
  APD.M       47.020000                                    :ELEVATION OF DEPTH REFERENCE (LMF) ABOVE PERMANENT DATUM
~A        DEPTH             CS           TENS           HTHO           HURA            HFK           HSGR           HCGR           HTPR           HTUR           HUPR           S2TM             DF
# ...
     3174.18720     2049.34800     4680.00000        5.07500        1.42200        0.00700       35.68100       27.16600        7.32300        3.56900        2.05200       16.22200      917.54500
     3174.33960     2045.86400     4713.00000        5.09700        1.62200        0.00700       37.32200       27.38200        7.26700        3.14300        2.31200       16.22200      919.67800
     3174.49200     2049.53000     4729.00000        4.31200        1.77100        0.00600       34.54900       23.92200        6.78200        2.43500        2.78500       16.16300      918.61200
     3174.64440     2045.73100     4722.00000        4.24500        1.74900        0.00500       31.05400       20.85700        8.92400        2.42700        3.67700       16.16300      919.32300
     3174.79680     2041.38900     4836.00000        3.96400        1.65700        0.00400       29.11900       19.11600        9.34700        2.39200        3.90700       16.22200      915.05700
     3174.94920     2041.80100     4689.00000        3.98300        1.86700        0.00300       28.91400       17.78600       11.48800        2.13400        5.38300       16.22200      917.19000
     3175.10160     2042.60100     4793.00000        4.06400        1.76400        0.00300       27.81600       17.57500       12.63100        2.30400        5.48100       16.10500      914.70100
     3175.25400     2043.51600     4825.00000        2.83800        1.87300        0.00300       24.45200       12.98300       10.73700        1.51500        7.08600       16.22200      920.03400
     3175.40640     2032.92600     4763.00000        2.41900        1.61700        0.00200       20.69600       10.49700       12.49000        1.49600        8.34900       16.22200      915.05700
     3175.55880     2032.45800     4754.00000        1.86800        1.60200        0.00200       18.81000        8.66400       10.33600        1.16600        8.86500       16.22200      916.47900
     3175.71120     2025.87800     4699.00000        1.73500        1.81800        0.00200       20.51900        8.84900        8.16600        0.95400        8.55600       16.22200      913.63500
     3175.86360     2021.74700     4769.00000        1.78000        1.99100        0.00300       23.22500       10.29000        6.23600        0.89400        6.97100       16.04600      909.01300
     3176.01600     2016.69100     4813.00000        1.79400        2.23300        0.00300       25.63000       11.29800        5.28100        0.80300        6.57600       16.16300      913.63500
     3176.16840     2013.90400     4677.00000        1.94100        2.33300        0.00300       26.67100       11.57700        5.86100        0.83200        7.04400       16.16300      912.56800
     3176.32080     2010.38900     4761.00000        2.60100        2.52800        0.00400       30.40800       14.16000        7.05800        1.02900        6.86000       16.16300      914.70100
     3176.47320     2006.70200     4850.00000        2.81000        2.59600        0.00500       33.32300       16.53400        6.01800        1.08300        5.55900       16.10500      912.56800
     3176.62560     2007.66000     4768.00000        2.97100        2.60000        0.00600       35.72000       18.63700        5.32100        1.14300        4.65600       16.16300      911.50200
     3176.77800     2003.58300     4745.00000        2.56700        2.79000        0.00500       35.52700       17.28600        4.68100        0.92000        5.08800       16.10500      911.85700
     3176.93040     2004.09400     4837.00000        2.65600        2.62300        0.00500       34.63700       17.32700        4.95300        1.01200        4.89200       16.22200      915.05700
     3177.08280     2004.67900     4689.00000        2.98700        2.45400        0.00500       33.90400       17.78700        5.87600        1.21700        4.82800       15.98800      917.54500
     3177.23520     2000.17700     4740.00000        3.23500        2.44600        0.00500       34.13400       18.30300        6.51100        1.32200        4.92400       16.16300      912.92400
     3177.38760     2000.20200     4624.00000        3.52000        2.33800        0.00500       34.23100       19.21500        7.02000        1.50600        4.66100       16.16300      911.50200
     3177.54000     2000.23100     4730.00000        3.23000        2.43100        0.00500       32.75600       17.49900        7.13300        1.32800        5.36900       16.10500      906.52500
     3177.69240     2000.58100     4633.00000        3.15700        2.00600        0.00400       28.23300       16.03000        8.24700        1.57400        5.24100       16.10500      911.14600
     3177.84480     2000.98100     4803.00000        3.15800        1.80900        0.00400       27.29600       16.13600        8.13000        1.74600        4.65700       16.10500      907.94700
     3177.99720     2001.12100     4795.00000        3.07200        1.68400        0.00400       26.41400       16.06600        7.71200        1.82400        4.22800       16.16300      914.70100
     3178.14960     2001.28100     4699.00000        3.23200        1.82700        0.00400       27.21300       16.22600        8.47600        1.77000        4.79000       16.10500      913.63500
     3178.30200     2001.46400     4722.00000        3.36200        1.78600        0.00400       27.21600       16.32100        9.19200        1.88300        4.88200       16.16300      917.54500
     3178.45440     2006.97000     4843.00000        4.19400        1.25800        0.00400       27.41000       19.70900        9.98800        3.33300        2.99700       16.16300      918.25600
     3178.60680     2008.28300     4745.00000        4.35700        1.53300        0.00400       28.70600       19.53400       11.35900        2.84200        3.99600       16.22200      915.41200
     3178.75920     2009.46600     4746.00000        4.03300        1.50300        0.00400       27.73200       19.15000        9.72600        2.68300        3.62500       16.16300      917.19000
     3178.91160     2008.25600     4844.00000        4.26400        1.31800        0.00500       28.56500       21.10900        8.76500        3.23400        2.71000       16.22200      920.03400
     3179.06400     2006.87300     4774.00000        4.60300        1.17200        0.00400       27.88100       21.25900       10.46000        3.92700        2.66300       16.22200      917.19000
     3179.21640     2007.85500     4670.00000        4.76300        1.14800        0.00500       29.36700       22.87800        9.44200        4.14900        2.27600       16.22200      920.74500
     3179.36880     2003.80600     4767.00000        4.89400        1.23800        0.00500       30.36000       23.23200        9.73100        3.95300        2.46200       16.22200      917.19000
     3179.52120     2004.35000     4772.00000        5.54600        1.21300        0.00500       31.27600       25.11400       11.04400        4.57300        2.41500       16.22200      919.67800
     3179.67360     2004.97100     4807.00000        5.48100        1.23600        0.00500       31.18500       24.61000       11.30700        4.43200        2.55100       16.16300      922.16700
     3179.82600     2005.99900     4798.00000        5.37200        1.44800        0.00500       31.77600       23.77600       11.78500        3.71000        3.17700       16.22200      921.10000
     3179.97840     2006.85600     4687.00000        6.42000        1.25500        0.00500       33.43000       27.04800       13.70200        5.11600        2.67900       16.22200      919.67800
     3180.13080     2002.33400     4746.00000        5.74500        1.87000        0.00400       35.03400       24.70300       12.85000        3.07300        4.18200       15.98800      917.54500
     3180.28320     2002.98500     4773.00000        5.82900        1.42500        0.00500       34.35800       26.40100       11.03300        4.08900        2.69800       16.22200      915.41200
