~VERSION
 VERS.        2.0                                          :CWLS LOG ASCII STANDARD - VERSION 2.0
 WRAP.        NO                                           :ONE LINE PER DEPTH STEP
~WELL
#       MNEM.UNIT                DATA                    DESCRIPTION OF MNEMONIC
#----------------------    ----------------              -----------------------
 STRT.M       3210.00000                                                                                     :START DEPTH
 STOP.M       3934.66200                                                                                     :STOP DEPTH
 STEP.M       0.15240                                                                                        :STEP DEPTH
 NULL.        -999.25000                                                                                     :NULL VALUE
 COMP.        PanCanadian Petroleum Limited                                                                  :COMPANY NAME
 WELL.        Panuke M-79A                                                                                   :WELL NAME
  FLD.        Panuke                                                                                         :FIELD NAME
  LOC.        Panuke                                                                                         :LOCATION / LEASE
 PROV.        Nova Scotia                                                                                    :PROVINCE
 CTRY.        CANADA                                                                                         :COUNTRY
 SRVC.        SPERRY-SUN DRILLING SERVICES                                                                   :SERVICE COMPANY
 DATE.        29-Oct-2000                                                                                    :DATE
  UWI.        300M794350060301                                                                               :UNIQUE WELL ID
 LATI.DEG     43 48' 32.10" N                                                                                :LATITUDE
 LONG.DEG     60 41' 59.81" W                                                                                :LONGITUDE
~CURVE
#MNEM.UNIT    VALUE                                        :DESCRIPTION
#----.----    ---------------                              :-------------------
 DEPT.M       00 001 00 00                                 :Depth Index
  TVD.M                                                    :TVD C=LAST G=1M
 SROP.M/HR                                                 :RATE OF PENETRATION C=SMOOTHED@0.5M G=1M
 SGRC.API                                                  :GAMMA RAY C=SMOOTHED@0.5M G=1M
 SEDP.OHMM                                                 :DEEP EWR PHASE RES  C=MEAN G=1M
 SEMP.OHMM                                                 :MEDIUM EWR PHASE RES  C=MEAN G=1M
 SESP.OHMM                                                 :SHALLOW EWR PHASE RES  C=MEAN G=1M
 SEXP.OHMM                                                 :EXT SHALLOW EWR PHASE RES  C=MEAN G=1M
 TEMP.DEGC                                                 :TEMPERATURE C=LAST G=1M
 SFXE.HR                                                   :FORM EXPOS TIME C=SMOOTHED@0.15M G=1M
 ACCC.MM                                                   :CORR CALIPER C=SMOOTHED@0.15M G=1M
 DTCQ.US/M                                                 :COMPRESSIONAL SLOWNESS C=SMOOTHED@0.15M G=1M
 DTSQ.US/M                                                 :SHEAR SLOWNESS C=SMOOTHED@0.15M G=1M
 SPLF.PU                                                   :NEUTRON POROSITY C=SMOOTHED@.2M G=1M
 SBD2.KPM                                                  :BULK DENSITY C=SMOOTHED@.2M G=1M
 SCO2.KPM                                                  :STANDOFF CORRECTION C=SMOOTHED@.2M G=1M
 SNPE.B/E                                                  :PHOTO ELECTRIC C=SMOOTHED@.2M G=1M
~PARAMETER
#MNEM.UNIT    VALUE                                        :DESCRIPTION
#----.----    ---------------                              :-------------------
 PDAT.        MEAN SEA LEVEL                               :PERMANENT DATUM
  EPD.M       0.000000                                     :ELEVATION OF PERMANENT DATUM ABOVE MEAN SEA LEVEL
  LMF.        DRILL FLOOR                                  :LOGGING MEASURED FROM (NAME OF LOGGING ELEVATION REFERENCE)
  APD.M       47.020000                                    :ELEVATION OF DEPTH REFERENCE (LMF) ABOVE PERMANENT DATUM
~OTHER
#SPERRY-SUN DRILLING SERVICES WILL USE ITS BEST EFFORTS TO FURNISH CUSTOMERS
# WITH ACCURATE INFORMATION AND INTERPRETATIONS THAT ARE PART OF, AND INCIDENT
# TO, THE SERVICES PROVIDED.  HOWEVER, SPERRY-SUN DRILLING SERVICES CANNOT AND
# DOES NOT WARRANT THE ACCURACY OR CORRECTNESS OF SUCH INFORMATION AND
# INTERPRETATIONS.  UNDER NO CIRCUMSTANCES SHOULD ANY SUCH INFORMATION OR
# INTERPRETATION BE RELIED UPON AS THE SOLE BASIS FOR ANY DRILLING, COMPLETION,
# PRODUCTION, OR FINANCIAL DECISION OR ANY PROCEDURE INVOLVING ANY RISK TO THE
# SAFETY OF ANY DRILLING VENTURE, DRILLING RIG OR ITS CREW OR ANY THIRD PARTY.
# THE CUSTOMER HAS FULL RESPONSIBILITY FOR ALL DRILLING, COMPLETION, AND
# PRODUCTION OPERATION.  SPERRY-SUN DRILLING SERVICES MAKES NO REPRESENTATIONS
# OR WARRANTIES, EITHER EXPRESSED OR IMPLIED, INCLUDING, BUT NOT LIMITED TO,
# THE IMPLIED WARRANTIES OF MERCHANTABILITY OR FITNESS FOR A PARTICULAR PURPOSE,
# WITH RESPECT TO THE SERVICES RENDERED.  IN NO EVENT WILL SPERRY-SUN DRILLING
# SERVICES BE LIABLE FOR FAILURE TO OBTAIN ANY PARTICULAR RESULTS OR FOR ANY
# DAMAGES, INCLUDING, BUT NOT LIMITED TO, INDIRECT, SPECIAL OR CONSEQUENTIAL
# DAMAGES, RESULTING FROM THE USE OF ANY INFORMATION OR INTERPRETATION PROVIDED
# BY SPERRY-SUN DRILLING SERVICES.
~ASCII     DEPT            TVD           SROP           SGRC           SEDP           SEMP           SESP           SEXP           TEMP           SFXE           ACCC           DTCQ           DTSQ           SPLF           SBD2           SCO2           SNPE
# ...
     3683.04960     3471.61000        3.70000       17.00000     2000.00000     1992.66000     2000.00000       58.48000       67.70000        3.96000      248.87000      163.00000      316.00000        4.81000     2696.00000       37.00000        4.08000
     3683.20200     3471.62000        3.70000       16.89000     2000.00000     2000.00000      371.91000       49.16000       67.70000        3.94000      248.56000      161.00000      309.00000        4.92000     2719.00000       69.00000        3.95000
     3683.35440     3471.64000        4.40000       17.34000     2000.00000      489.52000      784.53000       48.12000       67.70000        3.91000      245.57000      162.00000      311.00000        5.54000     2778.00000      120.00000        3.91000
     3683.50680     3471.65000        4.50000       17.92000      553.60000      449.00000      323.94000       41.75000       67.70000        3.90000      248.20000      155.00000      309.00000        5.71000     2745.00000       97.00000        3.99000
     3683.65920     3471.66000        3.80000       18.44000      273.66000      204.21000      165.57000       35.54000       67.70000        3.87000      248.53000      152.00000      315.00000        6.34000     2671.00000       87.00000        3.45000
     3683.81160     3471.67000        4.10000       18.66000      373.17000      234.38000      231.11000       35.15000       67.70000        3.86000      248.96000      157.00000      315.00000        6.76000     2639.00000       69.00000        3.34000
     3683.96400     3471.69000        3.60000       18.45000      630.20000      349.85000      199.93000       34.44000       67.70000        3.82000      255.07000      159.00000      315.00000        6.88000     2614.00000       59.00000        4.16000
     3684.11640     3471.69000        4.00000       18.38000      462.99000      328.37000      190.97000       38.22000       67.70000        3.81000      253.38000      166.00000      315.00000        6.24000     2664.00000       90.00000        4.37000
     3684.26880     3471.71000        3.80000       18.24000      604.02000     1195.67000      247.13000       41.87000       67.70000        3.81000      252.78000      167.00000      327.00000        5.02000     2651.00000       63.00000        3.88000
     3684.42120     3471.72000        4.00000       17.70000     2000.00000     2000.00000     2000.00000       73.45000       67.70000        3.80000      253.17000      167.00000      319.00000        4.17000     2646.00000       53.00000        3.45000
     3684.57360     3471.73000        4.60000       16.86000     2000.00000     2000.00000     2000.00000       90.76000       67.70000        3.78000      246.47000      169.00000      308.00000        3.40000     2685.00000      104.00000        4.21000
     3684.72600     3471.75000        4.50000       17.55000      307.35000      276.50000      124.53000       36.80000       67.70000        3.79000      253.26000      174.00000      308.00000        2.95000     2638.00000       52.00000        4.06000
     3684.87840     3471.76000        4.60000       17.90000      323.62000      285.46000      127.82000       32.20000       68.40000        3.79000      252.17000      167.00000      315.00000        2.72000     2617.00000       27.00000        3.93000
     3685.03080     3471.77000        3.90000       18.12000     2000.00000     2000.00000     2000.00000       59.07000       68.40000        3.74000      245.73000      165.00000      317.00000        2.23000     2644.00000       29.00000        3.75000
     3685.18320     3471.78000        4.30000       17.56000     2000.00000     2000.00000     2000.00000       80.67000       68.40000        3.70000      237.88000      161.00000      315.00000        1.88000     2655.00000       41.00000        3.58000
     3685.33560     3471.80000        6.10000       17.39000     2000.00000     2000.00000     2000.00000       89.69000       68.40000        3.63000      237.30000      162.00000      309.00000        1.90000     2688.00000       71.00000        3.66000
     3685.48800     3471.80000        5.70000       17.65000     1192.14000      899.32000     2000.00000      100.55000       68.40000        3.65000      238.98000      158.00000      306.00000        2.01000     2710.00000       74.00000        3.89000
     3685.64040     3471.82000        4.50000       17.83000      652.13000      991.51000      561.60000      120.89000       68.40000        3.70000      230.46000      165.00000      313.00000        1.93000     2679.00000       14.00000        3.85000
     3685.79280     3471.83000        3.90000       17.53000      768.22000     1146.58000     2000.00000      139.95000       68.40000        3.72000      230.05000      161.00000      315.00000        2.18000     2694.00000       12.00000        3.39000
     3685.94520     3471.85000        2.60000       17.23000      748.59000      957.63000     2000.00000      185.31000       68.40000        3.72000      229.40000      161.00000      312.00000        2.61000     2761.00000       30.00000        3.46000
     3686.09760     3471.85000        2.40000       16.82000      533.50000      364.24000      410.05000      139.45000       68.40000        3.69000      228.72000      161.00000      305.00000        3.00000     2794.00000       59.00000        3.28000
     3686.25000     3471.87000        1.80000       15.77000      290.96000      280.26000      346.77000       69.97000       68.40000        3.63000      228.57000      148.00000      302.00000        4.29000     2808.00000       87.00000        3.26000
     3686.40240     3471.88000        1.70000       15.57000      272.25000      220.71000      215.74000       66.91000       68.40000        3.58000      228.99000      148.00000      302.00000        4.50000     2738.00000      100.00000        3.13000
     3686.55480     3471.89000        1.30000       14.67000      291.07000      243.56000      181.32000       65.45000       67.10000        3.56000      230.23000      155.00000      302.00000        4.90000     2592.00000       16.00000        2.67000
     3686.70720     3471.90000        2.00000       14.71000      264.32000      225.11000      183.44000       62.86000       67.10000        3.52000      236.78000      157.00000      302.00000        4.89000     2597.00000       -3.00000        2.62000
     3686.85960     3471.92000        5.30000       14.23000      519.05000      314.34000      495.32000       76.30000       66.50000        3.45000      228.44000      157.00000      313.00000        5.10000     2729.00000       34.00000        3.20000
     3687.01200     3471.92000        7.00000       13.93000      902.81000      686.88000     2000.00000      100.18000       66.50000        3.45000      229.08000      157.00000      303.00000        4.94000     2767.00000       50.00000        3.41000
     3687.16440     3471.94000        7.30000       14.53000      956.41000      493.47000     1039.86000      116.88000       66.50000        3.47000      228.20000      162.00000      308.00000        5.66000     2725.00000       54.00000        3.09000
     3687.31680     3471.95000        5.80000       13.78000      405.64000      312.12000      465.27000       83.67000       66.50000        3.47000      229.78000      170.00000      308.00000        5.91000     2706.00000       51.00000        3.06000
     3687.46920     3471.96000        3.40000       13.78000      220.45000      162.30000      118.50000       43.17000       67.10000        3.46000      229.28000      168.00000      293.00000        5.11000     2701.00000       24.00000        3.05000
     3687.62160     3471.97000        3.70000       14.02000      226.41000      161.11000      107.29000       41.20000       67.10000        3.43000      231.59000      170.00000      301.00000        4.99000     2730.00000       16.00000        2.91000
     3687.77400     3471.99000        4.90000       14.17000     2000.00000     2000.00000     2000.00000      207.45000       67.10000        3.37000      237.09000      161.00000      299.00000        5.02000     2787.00000       68.00000        2.59000
