~VERSION
 VERS.        2.0                                          :CWLS Log ASCII Standard - VERSION 2.0
 WRAP.        NO                                           :One Line per depth step
 CREA.        20001106 21.27                               :LAS Creation date <yyyymmdd hh.mm>
#--------------------------------------------------
~WELL
#MNEM.UNIT      DATA             DESCRIPTION
#---- ------ --------------   -----------------------------
 STRT.M       3055.46760                                                                                     :START DEPTH
 STOP.M       3510.83880                                                                                     :STOP DEPTH
 STEP.M       0.15240                                                                                        :STEP
 NULL.        -999.25000                                                                                     :NULL VALUE
 COMP.        PANCANADIAN PETROLEUM LTD.                                                                     :COMPANY
 WELL.        PANCANADIAN PANUKE M-79                                                                        :WELL
  FLD.        PANUKE                                                                                         :FIELD
  LOC.        LAT 43 48' 32.10" N (NAD 27)                                                                   :LOCATION
 PROV.        NOVA SCOTIA                                                                                    :PROVINCE
 CTRY.        CANADA                                                                                         :COUNTRY
 SRVC.        Schlumberger                                                                                   :SERVICE COMPANY
 DATE.        06-Nov-2000                                                                                    :LOG DATE
  UWI.        300M794350060301                                                                               :UNIQUE WELL ID
 LATI.DEG     43 48' 32.10" N                                                                                :LATITUDE
 LONG.DEG     60 41' 59.81" W                                                                                :LONGITUDE
#--------------------------------------------------
~CURVE
#MNEM.UNIT    VALUE                                        :DESCRIPTION
#----.----    ---------------                              :-------------------
 DEPT.M       00 001 00 00                                 :Depth Index
   CS.F/HR                                                 :CABLE SPEED
 TENS.LBF                                                  :CABLE TENSION
 HTHO.PPM                                                  :HNGS FORMATION THORIUM CONCENTRATION
 HURA.PPM                                                  :HNGS FORMATION URANIUM CONCENTRATION
  HFK.                                                     :HNGS FORMATION POTASSIUM CONCENTRATION
 HSGR.GAPI                                                 :HNGS STANDARD GAMMA RAY
 HCGR.GAPI                                                 :HNGS COMPUTED GAMMA RAY
 HTPR.                                                     :HNGS THORIUM/POTASSIUM RATIO
 HTUR.                                                     :HNGS THORIUM/URANIUM RATIO
 HUPR.                                                     :HNGS URANIUM/POTASSIUM RATIO
 S2TM.DEGC                                                 :HNGS DETECTOR 2 TEMPERATURE
   DF.LBF                                                  :UNCALIBRATED DOWNHOLE FORCE
~PARAMETER
#MNEM.UNIT    VALUE                                        :DESCRIPTION
#----.----    ---------------                              :-------------------
 PDAT.        MEAN SEA LEVEL                               :PERMANENT DATUM
  EPD.M       0.000000                                     :ELEVATION OF PERMANENT DATUM ABOVE MEAN SEA LEVEL
  LMF.        DRILL FLOOR                                  :LOGGING MEASURED FROM (NAME OF LOGGING ELEVATION REFERENCE)
  APD.M       47.020000                                    :ELEVATION OF DEPTH REFERENCE (LMF) ABOVE PERMANENT DATUM
~A        DEPTH             CS           TENS           HTHO           HURA            HFK           HSGR           HCGR           HTPR           HTUR           HUPR           S2TM             DF
# ...
     3086.70960     2052.39700     4458.00000        4.08800        2.06700        0.00500       35.27800       21.49600        7.61500        1.97800        3.85000       16.45500      934.96500
     3086.86200     2054.71100     4534.00000        5.15300        2.14300        0.00600       40.32300       26.41500        8.07100        2.40500        3.35600       16.33800      931.41000
     3087.01440     2057.35600     4494.00000        5.46800        2.30200        0.00700       42.85300       28.52600        7.75400        2.37600        3.26400       16.33800      934.61000
     3087.16680     2054.33200     4542.00000        5.95400        2.17700        0.00700       42.24700       29.75800        8.56300        2.73500        3.13100       16.28000      937.09800
     3087.31920     2056.92300     4537.00000        5.78800        2.21000        0.00600       40.71200       28.29100        9.03900        2.61900        3.45100       16.33800      936.03100
     3087.47160     2054.52100     4572.00000        6.64800        1.35600        0.00600       37.19200       30.72300       10.44400        4.90200        2.13100       16.33800      935.67600
     3087.62400     2056.81000     4554.00000        6.89400        1.14500        0.00600       36.60300       31.40600       10.86100        6.02400        1.80300       16.33800      934.96500
     3087.77640     2056.76200     4612.00000        6.94000        1.43400        0.00700       38.89200       32.13200       10.39300        4.84100        2.14700       16.45500      932.12100
     3087.92880     2057.04300     4561.00000        7.57300        1.69700        0.00700       41.84400       34.45900       10.89600        4.46200        2.44200       16.33800      932.47600
     3088.08120     2059.69100     4491.00000        7.51000        1.92100        0.00700       43.22700       34.12700       10.93600        3.91000        2.79700       16.39700      926.78800
     3088.23360     2062.71800     4544.00000        7.64400        1.81400        0.00600       41.62700       33.78900       11.83100        4.21500        2.80700       16.33800      928.92100
     3088.38600     2061.14400     4502.00000        6.97000        2.00200        0.00600       40.88100       31.40400       11.20100        3.48200        3.21700       16.33800      931.41000
     3088.53840     2064.70800     4477.00000        6.72700        1.88300        0.00600       39.67800       30.30800       11.19900        3.57200        3.13500       16.33800      932.83200
     3088.69080     2062.73400     4484.00000        7.01300        1.68000        0.00600       40.02300       31.92800       10.87800        4.17400        2.60600       16.39700      932.83200
     3088.84320     2061.16300     4518.00000        6.50400        1.78100        0.00600       40.07300       30.50200       10.04300        3.65300        2.74900       16.45500      930.34300
     3088.99560     2058.68400     4477.00000        6.17700        1.73000        0.00700       40.90500       31.08000        8.42800        3.56900        2.36100       16.28000      932.47600
     3089.14800     2056.19200     4530.00000        4.93100        2.48000        0.00700       42.07400       26.50100        7.25700        1.98800        3.65100       16.33800      927.49900
     3089.30040     2053.34500     4491.00000        4.76500        2.82500        0.00600       43.74400       25.27900        7.46900        1.68700        4.42800       16.33800      933.89900
     3089.45280     2055.79400     4440.00000        4.73800        2.80500        0.00700       44.39700       25.71400        7.10700        1.68900        4.20800       16.33800      931.41000
     3089.60520     2052.54700     4479.00000        4.23900        2.52000        0.00700       42.18600       24.77000        6.10100        1.68200        3.62700       16.45500      934.61000
     3089.75760     2054.88300     4589.00000        4.26000        2.43800        0.00600       40.72600       23.95600        6.59500        1.74800        3.77300       16.39700      937.45300
     3089.91000     2057.55200     4495.00000        3.99000        2.49600        0.00600       40.50000       23.07800        6.22600        1.59900        3.89400       16.33800      934.61000
     3090.06240     2052.83200     4566.00000        5.23000        2.31600        0.00700       43.02500       26.98100        7.95200        2.25800        3.52200       16.45500      934.61000
     3090.21480     2051.54300     4623.00000        5.12700        2.55200        0.00600       43.06600       25.76700        8.45000        2.00900        4.20700       16.33800      930.34300
     3090.36720     2058.90600     4563.00000        4.66200        2.75700        0.00600       43.17100       23.87500        8.08800        1.69100        4.78300       16.39700      935.32000
     3090.51960     2056.78800     4537.00000        4.35100        2.62800        0.00600       42.05000       23.47300        7.19900        1.65600        4.34800       16.39700      936.38700
     3090.67200     2056.40100     4586.00000        4.69600        2.58100        0.00600       42.77400       25.16400        7.30600        1.82000        4.01500       16.10500      938.52000
     3090.82440     2056.63100     4594.00000        5.20300        2.39600        0.00600       43.34700       26.59100        8.12800        2.17200        3.74200       16.39700      934.61000
     3090.97680     2059.55000     4526.00000        5.12400        2.32600        0.00600       42.30500       26.51300        7.89700        2.20200        3.58600       16.39700      936.38700
     3091.12920     2057.18200     4564.00000        5.93200        1.92600        0.00700       41.96000       29.31300        8.80000        3.07900        2.85800       16.33800      931.41000
     3091.28160     2059.85000     4484.00000        6.31600        1.84000        0.00600       41.64900       29.38700       10.25500        3.43300        2.98700       16.33800      931.05400
     3091.43400     2060.57200     4536.00000        7.14800        1.68100        0.00600       42.20700       31.29400       12.16600        4.25100        2.86200       16.33800      932.83200
     3091.58640     2061.06200     4533.00000        6.91900        1.58600        0.00600       40.85500       30.45200       11.97900        4.36100        2.74700       16.45500      934.96500
     3091.73880     2058.91000     4513.00000        6.31000        1.68600        0.00600       40.42500       29.26500       10.34400        3.74300        2.76400       16.33800      936.03100
     3091.89120     2056.45100     4476.00000        6.21900        1.59400        0.00700       40.59900       29.84800        9.46100        3.90100        2.42500       16.39700      938.16500
     3092.04360     2053.64000     4606.00000        7.18800        1.12300        0.00700       40.29600       32.57200       11.01900        6.39900        1.72200       16.45500      934.96500
     3092.19600     2056.13200     4560.00000        6.94600        1.13100        0.00600       38.33500       30.84500       11.67000        6.14200        1.90000       16.33800      935.67600
     3092.34840     2052.93300     4444.00000        6.66400        1.32400        0.00500       36.60300       27.83100       14.10000        5.03200        2.80200       16.33800      937.09800
     3092.50080     2055.32300     4629.00000        6.59600        1.48300        0.00500       38.18700       28.73300       12.35000        4.44600        2.77700       16.33800      933.89900
     3092.65320     2052.69400     4578.00000        7.05000        1.54500        0.00500       39.04900       29.93500       13.36500        4.56200        2.93000       16.33800      932.83200
     3092.80560     2054.72000     4555.00000        6.77900        1.76000        0.00500       39.43400       28.77900       13.37200        3.85100        3.47300       16.33800      931.05400
