~VERSION
 VERS.        2.0                                          :CWLS Log ASCII Standard - VERSION 2.0
 WRAP.        NO                                           :One Line per depth step
 CREA.        20001106 21.27                               :LAS Creation date <yyyymmdd hh.mm>
#--------------------------------------------------
~WELL
#MNEM.UNIT      DATA             DESCRIPTION
#---- ------ --------------   -----------------------------
 STRT.M       3055.46760                                                                                     :START DEPTH
 STOP.M       3510.83880                                                                                     :STOP DEPTH
 STEP.M       0.15240                                                                                        :STEP
 NULL.        -999.25000                                                                                     :NULL VALUE
 COMP.        PANCANADIAN PETROLEUM LTD.                                                                     :COMPANY
 WELL.        PANCANADIAN PANUKE M-79                                                                        :WELL
  FLD.        PANUKE                                                                                         :FIELD
  LOC.        LAT 43 48' 32.10" N (NAD 27)                                                                   :LOCATION
 PROV.        NOVA SCOTIA                                                                                    :PROVINCE
 CTRY.        CANADA                                                                                         :COUNTRY
 SRVC.        Schlumberger                                                                                   :SERVICE COMPANY
 DATE.        06-Nov-2000                                                                                    :LOG DATE
  UWI.        300M794350060301                                                                               :UNIQUE WELL ID
 LATI.DEG     43 48' 32.10" N                                                                                :LATITUDE
 LONG.DEG     60 41' 59.81" W                                                                                :LONGITUDE
#--------------------------------------------------
~CURVE
#MNEM.UNIT    VALUE                                        :DESCRIPTION
#----.----    ---------------                              :-------------------
 DEPT.M       00 001 00 00                                 :Depth Index
   CS.F/HR                                                 :CABLE SPEED
 TENS.LBF                                                  :CABLE TENSION
 HTHO.PPM                                                  :HNGS FORMATION THORIUM CONCENTRATION
 HURA.PPM                                                  :HNGS FORMATION URANIUM CONCENTRATION
  HFK.                                                     :HNGS FORMATION POTASSIUM CONCENTRATION
 HSGR.GAPI                                                 :HNGS STANDARD GAMMA RAY
 HCGR.GAPI                                                 :HNGS COMPUTED GAMMA RAY
 HTPR.                                                     :HNGS THORIUM/POTASSIUM RATIO
 HTUR.                                                     :HNGS THORIUM/URANIUM RATIO
 HUPR.                                                     :HNGS URANIUM/POTASSIUM RATIO
 S2TM.DEGC                                                 :HNGS DETECTOR 2 TEMPERATURE
   DF.LBF                                                  :UNCALIBRATED DOWNHOLE FORCE
~PARAMETER
#MNEM.UNIT    VALUE                                        :DESCRIPTION
#----.----    ---------------                              :-------------------
 PDAT.        MEAN SEA LEVEL                               :PERMANENT DATUM
  EPD.M       0.000000                                     :ELEVATION OF PERMANENT DATUM ABOVE MEAN SEA LEVEL
  LMF.        DRILL FLOOR                                  :LOGGING MEASURED FROM (NAME OF LOGGING ELEVATION REFERENCE)
  APD.M       47.020000                                    :ELEVATION OF DEPTH REFERENCE (LMF) ABOVE PERMANENT DATUM
~A        DEPTH             CS           TENS           HTHO           HURA            HFK           HSGR           HCGR           HTPR           HTUR           HUPR           S2TM             DF
# ...
     3292.90680     2135.84900     4914.00000        2.01800        1.04000        0.00300       19.32400       11.02200        7.01100        1.94000        3.61300       15.87100      832.93600
     3293.05920     2138.44900     4952.00000        1.86300        1.11400        0.00300       19.81700       11.04900        5.92400        1.67200        3.54200       15.87100      835.06900
     3293.21160     2141.24300     4994.00000        1.79500        1.27400        0.00300       19.99200       10.66200        5.90900        1.40900        4.19200       15.87100      831.51400
     3293.36400     2138.81000     4879.00000        1.66700        1.23700        0.00300       19.40700       10.27200        5.50300        1.34800        4.08400       15.87100      824.40400
     3293.51640     2136.21400     4935.00000        1.66700        1.27400        0.00300       18.95100        9.65200        6.21200        1.30800        4.74800       15.87100      821.20500
     3293.66880     2144.62700     4929.00000        1.38500        1.24500        0.00200       16.99900        8.21000        5.92700        1.11300        5.32700       15.81300      823.69300
     3293.82120     2142.30800     4841.00000        1.10700        1.36600        0.00200       16.66000        7.50400        4.62700        0.81000        5.71100       15.81300      824.76000
     3293.97360     2140.02700     4883.00000        1.47200        1.28600        0.00300       16.95300        8.80600        5.82400        1.14400        5.08900       15.87100      823.33800
     3294.12600     2143.22400     4895.00000        1.65300        1.29000        0.00300       17.95300        9.62800        6.13700        1.28100        4.78900       15.81300      821.56000
     3294.27840     2140.88900     5068.00000        1.49200        1.31800        0.00200       16.57800        8.40200        6.57200        1.13200        5.80600       15.75400      819.42700
     3294.43080     2146.33000     4907.00000        1.14300        1.06500        0.00300       14.61400        7.95400        4.41900        1.07300        4.11900       15.87100      816.22800
     3294.58320     2142.57700     4970.00000        1.10200        1.13800        0.00300       14.60400        7.69300        4.39500        0.96800        4.54200       15.75400      815.51700
     3294.73560     2140.14900     5071.00000        1.06300        1.11700        0.00200       13.82200        7.04000        4.81900        0.95100        5.06600       15.87100      818.71700
     3294.88800     2143.36400     4908.00000        1.09200        1.10500        0.00200       14.14600        6.96500        5.15700        0.98800        5.22100       15.75400      816.22800
     3295.04040     2141.23400     4854.00000        1.58400        0.96800        0.00200       14.05800        8.02800        8.28700        1.63600        5.06600       15.75400      812.67300
     3295.19280     2138.61500     4942.00000        1.56100        0.86300        0.00200       13.86600        8.62100        6.84300        1.80900        3.78300       15.81300      810.18400
     3295.34520     2135.62200     4911.00000        1.60800        0.73700        0.00200       13.11300        8.62900        7.28300        2.18200        3.33800       15.75400      810.54000
     3295.49760     2135.31500     4907.00000        1.62700        0.59400        0.00200       11.79300        7.98900        8.93900        2.73800        3.26500       15.87100      808.40700
     3295.65000     2134.96500     4968.00000        1.11500        0.86900        0.00200       12.26700        6.08000        7.03400        1.28400        5.47900       15.75400      806.98500
     3295.80240     2137.43900     4897.00000        0.96000        0.97400        0.00100       11.65800        5.08900        7.47600        0.98500        7.58700       15.75400      803.07400
     3295.95480     2134.27700     4916.00000        0.78900        1.07900        0.00100       12.15300        4.34800        6.88200        0.73200        9.40800       15.75400      802.00800
     3296.10720     2136.83100     4934.00000        0.76700        1.20800        0.00100       11.77100        3.25700        7.67300        0.63500       12.07900       15.75400      800.94100
     3296.25960     2139.75000     4832.00000        0.89300        1.46300        0.00100       13.79100        3.54400        8.93500        0.61100       14.63400       15.81300      798.45300
     3296.41200     2136.73300     4950.00000        0.90000        1.38600        0.00100       13.30700        3.65600        9.00500        0.65000       13.86300       15.87100      797.74200
     3296.56440     2139.63800     4942.00000        0.93000        1.23100        0.00100       12.50200        4.06600        9.30300        0.75600       12.30800       15.81300      796.67500
     3296.71680     2139.90500     4792.00000        0.63900        1.12500        0.00100       11.33400        3.55000        6.38600        0.56800       11.24800       15.75400      795.25300
     3296.86920     2140.21000     4951.00000        0.69700        1.33200        0.00100       12.48400        3.27100        6.96700        0.52300       13.32300       15.75400      796.67500
     3297.02160     2140.55900     5023.00000        0.71600        1.53600        0.00100       14.56600        4.11100        6.31600        0.46600       13.55300       15.87100      796.67500
     3297.17400     2140.77700     5008.00000        0.72300        1.78500        0.00100       16.52000        4.60000        5.18100        0.40500       12.79700       15.75400      796.67500
     3297.32640     2144.25900     5030.00000        1.02600        1.62200        0.00200       17.79500        7.23200        4.32300        0.63200        6.83800       15.87100      797.03100
     3297.47880     2145.18600     4988.00000        1.14700        1.54600        0.00300       18.57300        8.22800        4.19900        0.74200        5.66000       15.81300      797.03100
     3297.63120     2146.24600     4955.00000        1.14100        1.43800        0.00300       17.86900        8.29800        4.10200        0.79300        5.17000       15.75400      794.89800
     3297.78360     2144.34300     4910.00000        1.21400        1.32300        0.00300       17.94800        9.04600        3.94500        0.91800        4.29700       15.63800      794.89800
     3297.93600     2142.16800     4908.00000        1.78400        1.19800        0.00300       18.34900       10.72100        5.77000        1.48900        3.87600       15.81300      794.18700
     3298.08840     2139.68200     4896.00000        1.81900        1.25600        0.00300       18.82800       11.06400        5.64300        1.44800        3.89600       15.87100      793.83100
     3298.24080     2137.02600     4858.00000        1.77700        1.16400        0.00300       17.13900       10.06800        6.49100        1.52600        4.25300       15.75400      795.25300
     3298.39320     2133.62100     4955.00000        1.44400        1.00400        0.00200       14.79800        8.37800        6.18500        1.43900        4.29900       15.75400      794.89800
     3298.54560     2136.08100     5050.00000        1.47800        0.98000        0.00200       14.92800        8.62300        6.12300        1.50800        4.05900       15.75400      796.32000
     3298.69800     2132.72500     4961.00000        1.59000        0.96200        0.00200       14.63400        8.38300        7.56900        1.65200        4.58000       15.87100      793.83100
     3298.85040     2135.05700     4974.00000        1.84500        1.00200        0.00200       15.71000        9.10000        8.84100        1.84200        4.80000       15.81300      795.25300
     3299.00280     2134.67000     4896.00000        1.70600        1.12000        0.00200       15.13100        7.75200       10.93400        1.52300        7.18000       15.81300      794.18700
