~VERSION
 VERS.        2.0                                          :CWLS LOG ASCII STANDARD - VERSION 2.0
 WRAP.        NO                                           :ONE LINE PER DEPTH STEP
~WELL
#       MNEM.UNIT                DATA                    DESCRIPTION OF MNEMONIC
#----------------------    ----------------              -----------------------
 STRT.M       3210.00000                                                                                     :START DEPTH
 STOP.M       3934.66200                                                                                     :STOP DEPTH
 STEP.M       0.15240                                                                                        :STEP DEPTH
 NULL.        -999.25000                                                                                     :NULL VALUE
 COMP.        PanCanadian Petroleum Limited                                                                  :COMPANY NAME
 WELL.        Panuke M-79A                                                                                   :WELL NAME
  FLD.        Panuke                                                                                         :FIELD NAME
  LOC.        Panuke                                                                                         :LOCATION / LEASE
 PROV.        Nova Scotia                                                                                    :PROVINCE
 CTRY.        CANADA                                                                                         :COUNTRY
 SRVC.        SPERRY-SUN DRILLING SERVICES                                                                   :SERVICE COMPANY
 DATE.        29-Oct-2000                                                                                    :DATE
  UWI.        300M794350060301                                                                               :UNIQUE WELL ID
 LATI.DEG     43 48' 32.10" N                                                                                :LATITUDE
 LONG.DEG     60 41' 59.81" W                                                                                :LONGITUDE
~CURVE
#MNEM.UNIT    VALUE                                        :DESCRIPTION
#----.----    ---------------                              :-------------------
 DEPT.M       00 001 00 00                                 :Depth Index
  TVD.M                                                    :TVD C=LAST G=1M
 SROP.M/HR                                                 :RATE OF PENETRATION C=SMOOTHED@0.5M G=1M
 SGRC.API                                                  :GAMMA RAY C=SMOOTHED@0.5M G=1M
 SEDP.OHMM                                                 :DEEP EWR PHASE RES  C=MEAN G=1M
 SEMP.OHMM                                                 :MEDIUM EWR PHASE RES  C=MEAN G=1M
 SESP.OHMM                                                 :SHALLOW EWR PHASE RES  C=MEAN G=1M
 SEXP.OHMM                                                 :EXT SHALLOW EWR PHASE RES  C=MEAN G=1M
 TEMP.DEGC                                                 :TEMPERATURE C=LAST G=1M
 SFXE.HR                                                   :FORM EXPOS TIME C=SMOOTHED@0.15M G=1M
 ACCC.MM                                                   :CORR CALIPER C=SMOOTHED@0.15M G=1M
 DTCQ.US/M                                                 :COMPRESSIONAL SLOWNESS C=SMOOTHED@0.15M G=1M
 DTSQ.US/M                                                 :SHEAR SLOWNESS C=SMOOTHED@0.15M G=1M
 SPLF.PU                                                   :NEUTRON POROSITY C=SMOOTHED@.2M G=1M
 SBD2.KPM                                                  :BULK DENSITY C=SMOOTHED@.2M G=1M
 SCO2.KPM                                                  :STANDOFF CORRECTION C=SMOOTHED@.2M G=1M
 SNPE.B/E                                                  :PHOTO ELECTRIC C=SMOOTHED@.2M G=1M
~PARAMETER
#MNEM.UNIT    VALUE                                        :DESCRIPTION
#----.----    ---------------                              :-------------------
 PDAT.        MEAN SEA LEVEL                               :PERMANENT DATUM
  EPD.M       0.000000                                     :ELEVATION OF PERMANENT DATUM ABOVE MEAN SEA LEVEL
  LMF.        DRILL FLOOR                                  :LOGGING MEASURED FROM (NAME OF LOGGING ELEVATION REFERENCE)
  APD.M       47.020000                                    :ELEVATION OF DEPTH REFERENCE (LMF) ABOVE PERMANENT DATUM
~OTHER
#SPERRY-SUN DRILLING SERVICES WILL USE ITS BEST EFFORTS TO FURNISH CUSTOMERS
# WITH ACCURATE INFORMATION AND INTERPRETATIONS THAT ARE PART OF, AND INCIDENT
# TO, THE SERVICES PROVIDED.  HOWEVER, SPERRY-SUN DRILLING SERVICES CANNOT AND
# DOES NOT WARRANT THE ACCURACY OR CORRECTNESS OF SUCH INFORMATION AND
# INTERPRETATIONS.  UNDER NO CIRCUMSTANCES SHOULD ANY SUCH INFORMATION OR
# INTERPRETATION BE RELIED UPON AS THE SOLE BASIS FOR ANY DRILLING, COMPLETION,
# PRODUCTION, OR FINANCIAL DECISION OR ANY PROCEDURE INVOLVING ANY RISK TO THE
# SAFETY OF ANY DRILLING VENTURE, DRILLING RIG OR ITS CREW OR ANY THIRD PARTY.
# THE CUSTOMER HAS FULL RESPONSIBILITY FOR ALL DRILLING, COMPLETION, AND
# PRODUCTION OPERATION.  SPERRY-SUN DRILLING SERVICES MAKES NO REPRESENTATIONS
# OR WARRANTIES, EITHER EXPRESSED OR IMPLIED, INCLUDING, BUT NOT LIMITED TO,
# THE IMPLIED WARRANTIES OF MERCHANTABILITY OR FITNESS FOR A PARTICULAR PURPOSE,
# WITH RESPECT TO THE SERVICES RENDERED.  IN NO EVENT WILL SPERRY-SUN DRILLING
# SERVICES BE LIABLE FOR FAILURE TO OBTAIN ANY PARTICULAR RESULTS OR FOR ANY
# DAMAGES, INCLUDING, BUT NOT LIMITED TO, INDIRECT, SPECIAL OR CONSEQUENTIAL
# DAMAGES, RESULTING FROM THE USE OF ANY INFORMATION OR INTERPRETATION PROVIDED
# BY SPERRY-SUN DRILLING SERVICES.
~ASCII     DEPT            TVD           SROP           SGRC           SEDP           SEMP           SESP           SEXP           TEMP           SFXE           ACCC           DTCQ           DTSQ           SPLF           SBD2           SCO2           SNPE
# ...
     3307.53600     3302.42000        2.20000     -999.25000      108.91000       78.86000       65.02000       47.26000       61.60000        5.38000     -999.25000     -999.25000     -999.25000     -999.25000     -999.25000     -999.25000     -999.25000
     3307.68840     3302.50000        2.20000     -999.25000      114.28000       82.25000       68.69000       48.96000       61.60000        5.33000     -999.25000     -999.25000     -999.25000     -999.25000     -999.25000     -999.25000     -999.25000
     3307.84080     3302.68000        3.10000     -999.25000      115.66000       83.49000       71.74000       52.33000       61.60000        5.33000     -999.25000     -999.25000     -999.25000     -999.25000     -999.25000     -999.25000     -999.25000
     3307.99320     3302.76000        3.20000     -999.25000      114.60000       83.97000       70.96000       51.48000       61.60000        5.33000     -999.25000     -999.25000     -999.25000     -999.25000     -999.25000     -999.25000     -999.25000
     3308.14560     3302.94000        3.70000     -999.25000      123.22000       91.28000       77.84000       54.93000       61.60000        5.31000     -999.25000     -999.25000     -999.25000     -999.25000     -999.25000     -999.25000     -999.25000
     3308.29800     3303.02000        4.00000     -999.25000      132.89000       98.12000       85.49000       59.21000       61.60000        5.32000     -999.25000     -999.25000     -999.25000     -999.25000     -999.25000     -999.25000     -999.25000
     3308.45040     3303.19000        3.90000     -999.25000      134.19000      102.01000       88.74000       57.57000       61.60000        5.35000     -999.25000     -999.25000     -999.25000     -999.25000     -999.25000     -999.25000     -999.25000
     3308.60280     3303.29000        3.90000     -999.25000      125.10000       94.69000       77.33000       50.84000       61.60000        5.35000     -999.25000     -999.25000     -999.25000     -999.25000     -999.25000     -999.25000     -999.25000
     3308.75520     3303.44000        4.00000     -999.25000      148.07000      112.51000       94.56000       67.88000       61.60000        5.35000     -999.25000     -999.25000     -999.25000     -999.25000     -999.25000     -999.25000     -999.25000
     3308.90760     3303.54000        3.60000     -999.25000      153.74000      117.98000      101.67000       76.34000       61.60000        5.36000     -999.25000     -999.25000     -999.25000     -999.25000     -999.25000     -999.25000     -999.25000
     3309.06000     3303.72000        3.50000     -999.25000      130.65000      103.77000       94.34000       65.15000       61.60000        5.38000     -999.25000     -999.25000     -999.25000     -999.25000     -999.25000     -999.25000     -999.25000
     3309.21240     3303.79000        3.40000     -999.25000      133.09000      106.59000      100.22000       73.49000       61.60000        5.39000     -999.25000     -999.25000     -999.25000     -999.25000     -999.25000     -999.25000     -999.25000
     3309.36480     3303.97000        3.60000     -999.25000      107.87000       85.70000       81.40000       61.17000       61.60000        5.38000     -999.25000     -999.25000     -999.25000     -999.25000     -999.25000     -999.25000     -999.25000
     3309.51720     3304.06000        4.10000     -999.25000      100.62000       80.46000       76.89000       57.96000       61.60000        5.38000     -999.25000     -999.25000     -999.25000     -999.25000     -999.25000     -999.25000     -999.25000
     3309.66960     3304.22000        3.60000     -999.25000       79.25000       61.48000       55.83000       41.61000       61.60000        5.39000     -999.25000     -999.25000     -999.25000     -999.25000     -999.25000     -999.25000     -999.25000
     3309.82200     3304.31000        3.60000     -999.25000       93.81000       71.49000       65.18000       47.89000       61.60000        5.41000     -999.25000     -999.25000     -999.25000     -999.25000     -999.25000     -999.25000     -999.25000
     3309.97440     3304.49000        4.40000     -999.25000      108.10000       82.81000       74.98000       55.75000       61.60000        5.32000     -999.25000     -999.25000     -999.25000     -999.25000     -999.25000     -999.25000     -999.25000
     3310.12680     3304.63000        8.00000     -999.25000       96.10000       72.71000       63.85000       47.18000       61.60000        5.29000     -999.25000     -999.25000     -999.25000     -999.25000     -999.25000     -999.25000     -999.25000
     3310.27920     3304.75000        9.90000     -999.25000       83.99000       63.02000       53.79000       39.93000       61.60000        5.33000     -999.25000     -999.25000     -999.25000     -999.25000     -999.25000     -999.25000     -999.25000
     3310.43160     3304.88000        6.80000     -999.25000       78.16000       57.71000       53.98000       40.23000       61.60000        5.30000     -999.25000     -999.25000     -999.25000     -999.25000     -999.25000     -999.25000     -999.25000
     3310.58400     3304.94000        4.90000     -999.25000       84.28000       65.98000       67.94000       48.54000       61.60000        5.25000     -999.25000     -999.25000     -999.25000     -999.25000     -999.25000     -999.25000     -999.25000
     3310.73640     3305.15000        3.70000     -999.25000       89.53000       74.36000       78.62000       54.62000       61.60000        5.22000     -999.25000     -999.25000     -999.25000     -999.25000     -999.25000     -999.25000     -999.25000
     3310.88880     3305.27000        3.50000     -999.25000       88.67000       74.46000       75.33000       52.38000       61.60000        5.20000     -999.25000     -999.25000     -999.25000     -999.25000     -999.25000     -999.25000     -999.25000
     3311.04120     3305.43000        2.90000     -999.25000       95.27000       82.96000       82.73000       62.39000       61.60000        5.19000     -999.25000     -999.25000     -999.25000     -999.25000     -999.25000     -999.25000     -999.25000
     3311.19360     3305.52000        3.00000     -999.25000       99.49000       88.77000       94.01000       74.38000       61.60000        5.17000     -999.25000     -999.25000     -999.25000     -999.25000     -999.25000     -999.25000     -999.25000
     3311.34600     3305.69000        2.80000     -999.25000       81.00000       70.54000       74.30000       65.81000       61.60000        5.15000     -999.25000     -999.25000     -999.25000     -999.25000     -999.25000     -999.25000     -999.25000
     3311.49840     3305.78000        2.90000     -999.25000       69.23000       58.19000       58.24000       51.62000       61.60000        5.14000     -999.25000     -999.25000     -999.25000     -999.25000     -999.25000     -999.25000     -999.25000
     3311.65080     3305.95000        3.50000     -999.25000       65.50000       56.14000       55.42000       46.94000       61.60000        5.16000     -999.25000     -999.25000     -999.25000     -999.25000     -999.25000     -999.25000     -999.25000
     3311.80320     3306.04000        3.70000     -999.25000       64.68000       56.21000       56.31000       47.90000       61.60000        5.17000     -999.25000     -999.25000     -999.25000     -999.25000     -999.25000     -999.25000     -999.25000
     3311.95560     3306.20000        3.70000     -999.25000       55.28000       46.83000       43.01000       34.42000       61.60000        5.18000     -999.25000     -999.25000     -999.25000     -999.25000     -999.25000     -999.25000     -999.25000
     3312.10800     3306.29000        2.90000     -999.25000       55.04000       47.12000       43.35000       34.88000       61.60000        5.17000     -999.25000     -999.25000     -999.25000     -999.25000     -999.25000     -999.25000     -999.25000
     3312.26040     3306.46000        2.60000     -999.25000       51.43000       44.14000       41.30000       34.42000       61.60000        5.19000     -999.25000     -999.25000     -999.25000     -999.25000     -999.25000     -999.25000     -999.25000
